city, state_id, state_name, county, longitude, latitude, zips, fips id
Prairie Ridge,WA,Washington,Pierce,47.1443,-122.1408,98360 98391,1840037882
Edison,WA,Washington,Skagit,48.5602,-122.4311,98232,1840017314
Packwood,WA,Washington,Lewis,46.6085,-121.6702,98361,1840025265
Wautauga Beach,WA,Washington,Kitsap,47.5862,-122.5482,98366,1840037725
Harper,WA,Washington,Kitsap,47.5207,-122.5196,98366,1840037659
Telma,WA,Washington,Chelan,47.8432,-120.8157,98826,1840037825
Kahlotus,WA,Washington,Franklin,46.6436,-118.5566,99335,1840018478
Mondovi,WA,Washington,Lincoln,47.6813,-118.0164,99122,1840037576
Washtucna,WA,Washington,Adams,46.7539,-118.3104,99371,1840022312
Pleasant Hill,WA,Washington,King,47.6154,-121.9096,98014,1840037805
Toledo,WA,Washington,Lewis,46.4412,-122.8494,98591,1840021162
Wabash,WA,Washington,King,47.2429,-122.0576,98022,1840037831
Renton,WA,Washington,King,47.4757,-122.1904,98059 98058 98057 98056 98055,1840019827
Chehalis,WA,Washington,Lewis,46.6649,-122.966,98532,1840018472
Central Valley,WA,Washington,Kitsap,47.6632,-122.6499,98370,1840037628
Lake City,WA,Washington,Pierce,47.1487,-122.5512,98498,1840037674
Megler,WA,Washington,Pacific,46.2509,-123.8576,98638,1840037572
Alder,WA,Washington,Pierce,46.7872,-122.2666,98328,1840023829
Ronald,WA,Washington,Kittitas,47.2338,-121.0335,98940,1840018438
Belvedere,WA,Washington,Okanogan,48.0499,-118.985,99116,1840037529
Waverly,WA,Washington,Spokane,47.338,-117.2313,99012 99039,1840022291
Turner Corner,WA,Washington,Snohomish,47.8045,-122.1435,98072,1840037720
Lofall,WA,Washington,Kitsap,47.8113,-122.6564,98370,1840023798
Kennydale,WA,Washington,King,47.5207,-122.2068,98056,1840037672
Easton,WA,Washington,Kittitas,47.2405,-121.1733,98925,1840017354
Navy Yard City,WA,Washington,Kitsap,47.5508,-122.6654,98312,1840018407
Mercer Island,WA,Washington,King,47.5624,-122.2265,98040,1840019830
Lynnwood,WA,Washington,Snohomish,47.8285,-122.3034,98037 98036 98046,1840019788
Coulee City,WA,Washington,Grant,47.6123,-119.289,99115,1840022293
Douglas,WA,Washington,Douglas,47.6212,-120.0048,98858,1840037763
Centralia,WA,Washington,Lewis,46.7226,-122.9695,98531,1840018471
Colbert,WA,Washington,Spokane,47.8266,-117.3419,99005,1840037633
Bryn Mawr,WA,Washington,King,47.5034,-122.2329,98178,1840037837
Silverdale,WA,Washington,Kitsap,47.6663,-122.6828,98311 98370 98383,1840018406
Lyle,WA,Washington,Klickitat,45.6956,-121.2805,98635,1840017402
Malott,WA,Washington,Okanogan,48.2919,-119.6954,98840 98829,1840025236
Mountlake Terrace,WA,Washington,Snohomish,47.7921,-122.3077,98043,1840019792
Ilwaco,WA,Washington,Pacific,46.3099,-124.0417,98624,1840018470
Fairwood,WA,Washington,King,47.4467,-122.143,98058,1840037517
Warm Beach,WA,Washington,Snohomish,48.1649,-122.3442,98292,1840018377
Thomas,WA,Washington,King,47.3537,-122.229,98002,1840037715
Parker,WA,Washington,Yakima,46.5022,-120.4668,98939 98951,1840023856
Steptoe,WA,Washington,Whitman,47.0075,-117.3502,99111 99174,1840025258
Vail,WA,Washington,Thurston,46.8451,-122.6562,98576,1840037829
Magnolia Beach,WA,Washington,King,47.382,-122.4832,98070,1840037501
Lakeview,WA,Washington,Pierce,47.1593,-122.4982,98499,1840037676
Shaw Island,WA,Washington,San Juan,48.5843,-122.9291,98286,1840037589
Oakesdale,WA,Washington,Whitman,47.1304,-117.2465,99158,1840022314
Rosburg,WA,Washington,Wahkiakum,46.3076,-123.6344,98643,1840023878
Seattle,WA,Washington,King,47.6217,-122.3238,98109 98108 98104 98107 98106 98101 98103 98102 98105 98154 98122 98121 98126 98125 98178 98174 98177 98144 98146 98195 98199 98118 98119 98116 98117 98115 98112 98164 98134 98136 98133 98111 98113 98114 98124 98127 98129 98139 98141 98145 98161 98165 98170 98175 98181 98185 98191 98194,1840021117
Onalaska,WA,Washington,Lewis,46.5782,-122.7112,98570,1840025264
George,WA,Washington,Grant,47.0847,-119.8601,98848 98824,1840019814
Index,WA,Washington,Snohomish,47.8214,-121.556,98256,1840021082
Winchester,WA,Washington,Grant,47.249,-119.7198,98848,1840037602
Chelatchie,WA,Washington,Clark,45.9279,-122.3795,98601,1840037753
Allentown,WA,Washington,King,47.4943,-122.2762,98178,1840037613
Novelty,WA,Washington,King,47.709,-121.9846,98019,1840037580
Rosalia,WA,Washington,Whitman,47.2365,-117.3762,99170,1840021138
Richmond Beach,WA,Washington,King,47.7695,-122.3901,98177,1840037706
Lakota,WA,Washington,King,47.3329,-122.3723,98023,1840037562
Liberty Lake,WA,Washington,Spokane,47.6687,-117.1031,99019 99016,1840037678
Airway Heights,WA,Washington,Spokane,47.6464,-117.5802,99224 99001,1840018399
Reardan,WA,Washington,Lincoln,47.67,-117.8778,99029,1840021110
Silvana,WA,Washington,Snohomish,48.2018,-122.2461,98292,1840018373
Brier,WA,Washington,Snohomish,47.7924,-122.2736,98036,1840018379
Robe,WA,Washington,Snohomish,48.0973,-121.8135,98252,1840037811
Elk Plain,WA,Washington,Pierce,47.0448,-122.3671,98387 98338,1840037546
Port Townsend,WA,Washington,Jefferson,48.1219,-122.7873,98368,1840019797
Ocean City,WA,Washington,Grays Harbor,47.0762,-124.1619,98569,1840018444
Boulevard Park,WA,Washington,King,47.5135,-122.3158,98108 98168,1840037519
Newhalem,WA,Washington,Whatcom,48.6737,-121.2473,98283,1840037799
Ford,WA,Washington,Stevens,47.9082,-117.8058,99013,1840037496
Waterville,WA,Washington,Douglas,47.648,-120.0707,98858,1840022287
Quinault,WA,Washington,Grays Harbor,47.467,-123.8455,98575,1840037808
Humptulips,WA,Washington,Grays Harbor,47.2491,-123.9348,98552,1840017361
Hamilton,WA,Washington,Skagit,48.5281,-121.9837,98255 98284,1840021067
Oak Harbor,WA,Washington,Island,48.2965,-122.6331,98277,1840019779
Naches,WA,Washington,Yakima,46.727,-120.6941,98937,1840022318
Anacortes,WA,Washington,Skagit,48.4878,-122.6291,98221,1840018366
Kettle Falls,WA,Washington,Stevens,48.6055,-118.0612,99141,1840019764
Walnut Grove,WA,Washington,Clark,45.6769,-122.6072,98665 98661 98662,1840018522
Salkum,WA,Washington,Lewis,46.5321,-122.6259,98582,1840037813
Cunningham,WA,Washington,Adams,46.8221,-118.8064,99344,1840037636
Irby,WA,Washington,Lincoln,47.3593,-118.8511,99159,1840037557
Electric City,WA,Washington,Grant,47.9222,-119.0476,99123 99133,1840021104
Burbank,WA,Washington,Walla Walla,46.1991,-118.9728,99323,1840017383
Silver Lake,WA,Washington,Cowlitz,46.2973,-122.8107,98645,1840037509
Dash Point,WA,Washington,Pierce,47.313,-122.4153,98422,1840037637
Woods Creek,WA,Washington,Snohomish,47.8821,-121.8982,98272,1840037864
McKenna,WA,Washington,Pierce,46.9366,-122.5501,98580 98558,1840023836
Island View,WA,Washington,Benton,46.2393,-119.2233,99352,1840037667
Kalama,WA,Washington,Cowlitz,46.0115,-122.8369,98625,1840018502
Grandview,WA,Washington,Yakima,46.2432,-119.9082,98935 98930,1840019871
Winthrop,WA,Washington,Okanogan,48.4719,-120.179,98862,1840022272
Maltby,WA,Washington,Snohomish,47.8026,-122.1044,98021 98296 98072 98077,1840017326
Spangle,WA,Washington,Spokane,47.4297,-117.3813,99031,1840022290
Blanchard,WA,Washington,Skagit,48.5934,-122.4166,98232,1840037747
Artondale,WA,Washington,Pierce,47.3023,-122.6398,98335,1840037617
May Creek,WA,Washington,Snohomish,47.8555,-121.6742,98251,1840037857
Home,WA,Washington,Pierce,47.279,-122.7744,98349,1840023831
Vashon,WA,Washington,King,47.4122,-122.4726,98070 98013,1840018414
Snoqualmie Falls,WA,Washington,King,47.5398,-121.8098,98065,1840037818
Laurier,WA,Washington,Ferry,48.9974,-118.2247,99146,1840026092
Quincy,WA,Washington,Grant,47.2342,-119.8512,98848,1840019818
Lake McMurray,WA,Washington,Skagit,48.3129,-122.2317,98274,1840037893
Martha Lake,WA,Washington,Snohomish,47.8479,-122.2327,98087 98012 98208,1840037875
Ariel,WA,Washington,Cowlitz,45.9568,-122.5709,98603,1840037526
Loon Lake,WA,Washington,Stevens,48.0686,-117.6299,99148,1840023998
Thornton,WA,Washington,Whitman,47.1207,-117.3896,99176,1840037512
Starbuck,WA,Washington,Columbia,46.5184,-118.1251,99359,1840022325
Mirrormont,WA,Washington,King,47.4616,-121.9936,98027,1840037876
Kelso,WA,Washington,Cowlitz,46.1249,-122.8907,98626 98632,1840018503
Meadowdale,WA,Washington,Snohomish,47.8584,-122.3161,98026,1840023774
Cottage Lake,WA,Washington,King,47.7465,-122.0755,98072 98077,1840037848
Cheney,WA,Washington,Spokane,47.49,-117.5789,99004,1840018398
Woodway,WA,Washington,Snohomish,47.7906,-122.3849,98020,1840037730
Lacey,WA,Washington,Thurston,47.0444,-122.7933,98503 98516 98509,1840019866
Harrah,WA,Washington,Yakima,46.407,-120.5422,98933,1840021156
Allyn,WA,Washington,Mason,47.3863,-122.8386,98524,1840025251
South Bend,WA,Washington,Pacific,46.6683,-123.8016,98586 98577,1840021161
Barstow,WA,Washington,Ferry,48.7783,-118.1329,99141,1840026089
Tiger,WA,Washington,Pend Oreille,48.6916,-117.4077,99119,1840037834
Warden,WA,Washington,Grant,46.9682,-119.0512,98857,1840021103
Junction City,WA,Washington,Grays Harbor,46.9712,-123.7651,98520,1840017362
Blyn,WA,Washington,Clallam,48.0131,-122.9897,98382,1840017318
Lakebay,WA,Washington,Pierce,47.257,-122.7585,98349,1840037737
Tahuya,WA,Washington,Mason,47.3712,-123.0557,98588,1840037823
Selah,WA,Washington,Yakima,46.648,-120.5388,98942,1840021149
Kitsap Lake,WA,Washington,Kitsap,47.5829,-122.7085,98312,1840037673
Sultan,WA,Washington,Snohomish,47.8703,-121.8036,98294,1840021080
Plain,WA,Washington,Chelan,47.7626,-120.6573,98826,1840037804
Tanner,WA,Washington,King,47.4813,-121.6925,98045,1840037824
Edmonds,WA,Washington,Snohomish,47.8114,-122.3534,98026 98020,1840037645
North Hill,WA,Washington,King,47.4193,-122.3235,98198,1840037877
Zillah,WA,Washington,Yakima,46.4085,-120.273,98953,1840021155
Monse,WA,Washington,Okanogan,48.1413,-119.6778,98812,1840037798
Lake Forest Park,WA,Washington,King,47.7592,-122.2877,98155,1840019837
Marlin,WA,Washington,Grant,47.4074,-118.985,98832,1840037844
Chinook,WA,Washington,Pacific,46.2755,-123.9425,98624 98614,1840017374
Albion,WA,Washington,Whitman,46.792,-117.2506,99163 99102,1840021136
Skykomish,WA,Washington,King,47.7103,-121.3585,98288,1840022299
Yakima,WA,Washington,Yakima,46.5926,-120.5492,98901 98903 98902 98908 98904 98907,1840021154
Pacific,WA,Washington,King,47.261,-122.2507,98001 98047,1840019834
Wishram,WA,Washington,Klickitat,45.6599,-120.9698,98673,1840018528
Cascade Valley,WA,Washington,Grant,47.1406,-119.3289,98837,1840037865
Cathcart,WA,Washington,Snohomish,47.8525,-122.1058,98296,1840017324
Brush Prairie,WA,Washington,Clark,45.7251,-122.5483,98606 98662,1840017398
Amboy,WA,Washington,Clark,45.9122,-122.4795,98601 98675,1840017396
Centerville,WA,Washington,Klickitat,45.754,-120.908,98613,1840017401
Verlot,WA,Washington,Snohomish,48.1003,-121.7679,98252,1840018376
Alstown,WA,Washington,Douglas,47.561,-119.9951,98858,1840037525
Synarep,WA,Washington,Okanogan,48.521,-119.3309,98849,1840037822
Annapolis,WA,Washington,Kitsap,47.5476,-122.6207,98366,1840037615
Port Gamble,WA,Washington,Kitsap,47.8543,-122.5838,98370,1840037702
Eatonville,WA,Washington,Pierce,46.8682,-122.2697,98328,1840021131
Similk Beach,WA,Washington,Skagit,48.4479,-122.5779,98221,1840037712
Cougar,WA,Washington,Cowlitz,46.0515,-122.2995,98616,1840037758
Eglon,WA,Washington,Kitsap,47.8626,-122.5146,98346,1840037647
Paterson,WA,Washington,Benton,45.9371,-119.6028,99350,1840037581
Tenino,WA,Washington,Thurston,46.8538,-122.8603,98589,1840021144
Minnehaha,WA,Washington,Clark,45.6576,-122.6204,98661,1840018518
Raymond,WA,Washington,Pacific,46.6841,-123.7375,98577,1840019881
Alger,WA,Washington,Skagit,48.6176,-122.3369,98229 98233 98232 98284,1840017312
Roy,WA,Washington,Pierce,46.9971,-122.5424,98580,1840019856
Snoqualmie,WA,Washington,King,47.5292,-121.8409,98065,1840021119
Fragaria,WA,Washington,Kitsap,47.464,-122.5312,98359,1840037550
Green Bluff,WA,Washington,Spokane,47.819,-117.277,99021 99005,1840023785
Woodmont Beach,WA,Washington,King,47.3615,-122.3121,98198,1840037729
Frances,WA,Washington,Pacific,46.5423,-123.5049,98577,1840037654
Lynden,WA,Washington,Whatcom,48.9502,-122.4542,98264,1840019752
Clayton,WA,Washington,Stevens,48.0012,-117.5611,99110,1840025239
Everson,WA,Washington,Whatcom,48.9124,-122.3509,98247,1840019750
White Swan,WA,Washington,Yakima,46.3769,-120.7381,98952,1840018464
Camano,WA,Washington,Island,48.1866,-122.4707,98282,1840037492
Cedar Grove,WA,Washington,King,47.4357,-122.0621,98038,1840037534
Winton,WA,Washington,Chelan,47.7354,-120.7412,98826,1840037833
East Olympia,WA,Washington,Thurston,46.9676,-122.8357,98501,1840037493
Sunset Beach,WA,Washington,Pierce,47.2182,-122.5726,98466,1840037714
Belfair,WA,Washington,Mason,47.4512,-122.8473,98528,1840025252
Oso,WA,Washington,Snohomish,48.2837,-121.9238,98223,1840018374
Federal Way,WA,Washington,King,47.3091,-122.3358,98023 98001 98003 98063 98093,1840019826
Scandia,WA,Washington,Kitsap,47.7165,-122.6579,98370,1840037840
Quilcene,WA,Washington,Jefferson,47.8369,-122.9058,98376,1840018389
Covada,WA,Washington,Ferry,48.2204,-118.2089,99138,1840037542
Hartline,WA,Washington,Grant,47.6894,-119.1081,99135,1840021105
Juanita,WA,Washington,King,47.7032,-122.2071,98033,1840037670
Molson,WA,Washington,Okanogan,48.981,-119.2006,98844,1840037796
Daisy,WA,Washington,Stevens,48.3613,-118.16,99167,1840037760
Sumas,WA,Washington,Whatcom,48.9955,-122.2695,98295,1840021045
Mill Creek,WA,Washington,Snohomish,47.8631,-122.2037,98012 98082,1840019790
Lakewood,WA,Washington,Pierce,47.1627,-122.5299,98498 98499 98496 98497,1840019860
Venersborg,WA,Washington,Clark,45.786,-122.4721,98604,1840018521
Port Angeles,WA,Washington,Clallam,48.1141,-123.4565,98362 98363,1840019782
Fairmont,WA,Washington,Snohomish,47.902,-122.2543,98204,1840037612
Wapato,WA,Washington,Yakima,46.4435,-120.4213,98951,1840021153
East Port Orchard,WA,Washington,Kitsap,47.5192,-122.6183,98366,1840037838
North Omak,WA,Washington,Okanogan,48.444,-119.4459,98841,1840037879
East Farms,WA,Washington,Spokane,47.7074,-117.0524,99025,1840037644
Eschbach,WA,Washington,Yakima,46.667,-120.6337,98908,1840017369
Chattaroy,WA,Washington,Spokane,47.8896,-117.3577,99003,1840037629
Inchelium,WA,Washington,Ferry,48.3379,-118.2372,99138,1840017307
Maxwelton,WA,Washington,Island,47.9373,-122.4443,98236,1840037681
White Center,WA,Washington,King,47.5086,-122.348,98106 98146 98168,1840037727
Medical Lake,WA,Washington,Spokane,47.5713,-117.6896,99022,1840019804
Lyman,WA,Washington,Skagit,48.523,-122.0634,98263 98284,1840021069
Arlington,WA,Washington,Snohomish,48.1698,-122.144,98223,1840018378
Ruston,WA,Washington,Pierce,47.2982,-122.5104,98407,1840021132
McCleary,WA,Washington,Grays Harbor,47.0584,-123.2725,98557,1840019846
Sammamish,WA,Washington,King,47.6045,-122.0446,98075 98074,1840021115
Covington,WA,Washington,King,47.3665,-122.105,98042,1840018425
McMillin,WA,Washington,Pierce,47.1286,-122.2374,98360 98374,1840023837
La Grande,WA,Washington,Pierce,46.8199,-122.2962,98328,1840023834
Cromwell,WA,Washington,Pierce,47.2743,-122.6224,98335,1840037543
Berrydale,WA,Washington,King,47.3398,-122.1279,98042,1840037515
Wenatchee,WA,Washington,Chelan,47.4251,-120.329,98801,1840021074
Urban,WA,Washington,Skagit,48.6179,-122.6921,98221,1840037597
Maplewood,WA,Washington,Pierce,47.3715,-122.5689,98332,1840037569
Marys Corner,WA,Washington,Lewis,46.5471,-122.8226,98532,1840037570
Mattawa,WA,Washington,Grant,46.7365,-119.9023,99349,1840022292
Cove,WA,Washington,King,47.452,-122.5079,98070,1840037635
Chico,WA,Washington,Kitsap,47.6234,-122.7198,98312 98383,1840037630
Maple Falls,WA,Washington,Whatcom,48.9135,-122.1049,98244,1840017290
Colvos,WA,Washington,King,47.4762,-122.4907,98070,1840037541
Ames Lake,WA,Washington,King,47.6346,-121.9664,98014 98053,1840037846
Ellisforde,WA,Washington,Okanogan,48.7899,-119.4012,98855,1840037843
Pine Lake,WA,Washington,King,47.5787,-122.0462,98075,1840037881
Tampico,WA,Washington,Yakima,46.5325,-120.8727,98903,1840023857
Colton,WA,Washington,Whitman,46.5677,-117.1284,99113,1840022315
Usk,WA,Washington,Pend Oreille,48.3138,-117.2797,99180,1840037828
Cle Elum,WA,Washington,Kittitas,47.1937,-120.9575,98943 98922,1840018440
Omak,WA,Washington,Okanogan,48.4214,-119.5178,98841,1840019761
Harrington,WA,Washington,Lincoln,47.4799,-118.2555,99134,1840019819
Sedro-Woolley,WA,Washington,Skagit,48.5095,-122.2344,98284,1840021066
Cherry Grove,WA,Washington,Clark,45.8021,-122.5764,98604,1840037538
La Push,WA,Washington,Clallam,47.9087,-124.6366,98350,1840037839
Lake Ketchum,WA,Washington,Snohomish,48.282,-122.348,98292,1840037852
Arletta,WA,Washington,Pierce,47.2901,-122.6676,98335,1840037616
Opportunity,WA,Washington,Spokane,47.6574,-117.2399,99206,1840037693
Glenoma,WA,Washington,Lewis,46.5146,-122.1601,98336,1840037768
Curlew,WA,Washington,Ferry,48.8777,-118.6045,99118,1840025242
Midland,WA,Washington,Pierce,47.1734,-122.412,98404 98445,1840018452
Adna,WA,Washington,Lewis,46.629,-123.0612,98532,1840037489
Roslyn,WA,Washington,Kittitas,47.2511,-121.0992,98941 98068 98925,1840019842
Deer Park,WA,Washington,Spokane,47.9642,-117.4398,99006,1840018400
Tracyton,WA,Washington,Kitsap,47.6095,-122.6533,98310 98311,1840018408
Hunts Point,WA,Washington,King,47.6418,-122.2289,98004,1840021122
Koontzville,WA,Washington,Okanogan,48.0157,-118.9472,99116,1840037560
Fruitland,WA,Washington,Stevens,48.071,-118.1989,99129,1840037552
Chewelah,WA,Washington,Stevens,48.2929,-117.7337,99109,1840018360
Mohler,WA,Washington,Lincoln,47.4049,-118.3291,99134,1840037575
East Renton Highlands,WA,Washington,King,47.4718,-122.0854,98027 98059 98038,1840037866
Sunnyside,WA,Washington,Yakima,46.3159,-120.0058,98944,1840021150
Long Lake,WA,Washington,Lincoln,47.836,-117.8488,99013,1840037566
Wauna,WA,Washington,Pierce,47.3862,-122.6692,98329,1840023842
Liberty,WA,Washington,Kittitas,47.2537,-120.6654,98922,1840037787
Normandy Park,WA,Washington,King,47.4344,-122.3436,98166,1840019832
Parkwood,WA,Washington,Kitsap,47.5266,-122.5986,98366,1840037518
Jamestown,WA,Washington,Clallam,48.1229,-123.0911,98382,1840037668
Forks,WA,Washington,Clallam,47.9526,-124.3906,98331,1840019781
Wallula,WA,Washington,Walla Walla,46.0847,-118.9056,99363,1840018489
SeaTac,WA,Washington,King,47.4444,-122.2985,98158 98148 98198 98168 98188 98131,1840021116
Royal City,WA,Washington,Grant,46.9,-119.6143,99357,1840019816
Beaux Arts Village,WA,Washington,King,47.5853,-122.2009,98004,1840019838
Steilacoom,WA,Washington,Pierce,47.1702,-122.5938,98388,1840022309
Northport,WA,Washington,Stevens,48.9158,-117.7799,99157,1840022274
Eldon,WA,Washington,Mason,47.5454,-123.046,98555,1840037764
Ridgefield,WA,Washington,Clark,45.8112,-122.7053,98642,1840019909
Ryderwood,WA,Washington,Cowlitz,46.375,-123.0441,98581,1840025275
Manchester,WA,Washington,Kitsap,47.5519,-122.5517,98366,1840017336
Vashon Heights,WA,Washington,King,47.5057,-122.4654,98070,1840037598
Salmon Creek,WA,Washington,Clark,45.7099,-122.6632,98686 98685,1840018520
Vantage,WA,Washington,Kittitas,46.9453,-119.9922,98950,1840018441
Creston,WA,Washington,Lincoln,47.7596,-118.5199,99117,1840021109
Soap Lake,WA,Washington,Grant,47.3884,-119.4905,98851,1840021102
Silver Firs,WA,Washington,Snohomish,47.8635,-122.1497,98296 98012 98208,1840037898
Plaza,WA,Washington,Spokane,47.3202,-117.3838,99170,1840037701
Machias,WA,Washington,Snohomish,47.9917,-122.0515,98258 98290,1840017325
Neah Bay,WA,Washington,Clallam,48.3612,-124.6115,98357,1840023937
Malo,WA,Washington,Ferry,48.7996,-118.612,99150,1840026093
Clyde Hill,WA,Washington,King,47.6303,-122.218,98004,1840018413
Keyport,WA,Washington,Kitsap,47.6993,-122.6232,98345,1840023797
North Yelm,WA,Washington,Thurston,46.9647,-122.6029,98597,1840037880
Grand Coulee,WA,Washington,Grant,47.9388,-119.003,99133,1840019815
Outlook,WA,Washington,Yakima,46.3312,-120.0913,98938,1840023855
Clinton,WA,Washington,Island,47.9731,-122.3577,98236,1840037632
Evans,WA,Washington,Stevens,48.7135,-118.0253,99126,1840037765
Browns Point,WA,Washington,Pierce,47.3036,-122.4369,98422,1840037624
Kennewick,WA,Washington,Benton,46.1979,-119.1732,99337 99336 99338,1840018481
North Marysville,WA,Washington,Snohomish,48.111,-122.1459,98223 98271,1840037878
Beaver Valley,WA,Washington,Jefferson,47.9259,-122.7302,98365,1840037528
Ahtanum,WA,Washington,Yakima,46.5581,-120.6058,98903 98908 98909,1840017368
Carbonado,WA,Washington,Pierce,47.0805,-122.0537,98396 98323,1840022307
Hyak,WA,Washington,Kittitas,47.3929,-121.3929,98068,1840037777
Arlington Heights,WA,Washington,Snohomish,48.2119,-122.0631,98223,1840037743
North Sultan,WA,Washington,Snohomish,47.8828,-121.8251,98294,1840037859
Pullman,WA,Washington,Whitman,46.7327,-117.1634,99164 99163,1840019864
Longview,WA,Washington,Cowlitz,46.1471,-122.9642,98632,1840019904
Adelaide,WA,Washington,King,47.3309,-122.3604,98023,1840037521
Peaceful Valley,WA,Washington,Whatcom,48.9477,-122.1406,98295 98244 98266,1840037896
West Richland,WA,Washington,Benton,46.3115,-119.3996,99320 99353,1840021168
Fife Heights,WA,Washington,Pierce,47.2586,-122.3454,98422 98424,1840037653
Manson,WA,Washington,Chelan,47.8858,-120.1563,98831,1840025246
Sprague,WA,Washington,Lincoln,47.3003,-117.9757,99032,1840021107
Cosmopolis,WA,Washington,Grays Harbor,46.9541,-123.7727,98520 98563 98537,1840018448
Redondo,WA,Washington,King,47.3484,-122.3235,98198,1840037705
Waller,WA,Washington,Pierce,47.2035,-122.37,98404 98371 98443,1840037889
Addy,WA,Washington,Stevens,48.3588,-117.8372,99101,1840025238
Matlock,WA,Washington,Mason,47.2379,-123.4079,98541,1840037793
Longbranch,WA,Washington,Pierce,47.2257,-122.7739,98349 98351,1840023835
North Bonneville,WA,Washington,Skamania,45.6426,-121.9695,98648 98639,1840019903
Pomeroy,WA,Washington,Garfield,46.4739,-117.5971,99347,1840019891
Colville,WA,Washington,Stevens,48.545,-117.8975,99114,1840018361
Palmer,WA,Washington,King,47.3143,-121.8923,98051,1840037802
Skyway,WA,Washington,King,47.4915,-122.2543,98178,1840037620
Medina,WA,Washington,King,47.6257,-122.2338,98039,1840019829
Algona,WA,Washington,King,47.2819,-122.2504,98001 98047,1840018415
Nine Mile Falls,WA,Washington,Spokane,47.7757,-117.5461,99026,1840037609
Black Diamond,WA,Washington,King,47.313,-122.0181,98010,1840018418
Gold Bar,WA,Washington,Snohomish,47.8562,-121.6919,98251,1840019786
Mesa,WA,Washington,Franklin,46.5736,-119.0013,99326 99343,1840019887
Cavalero Corner,WA,Washington,Snohomish,47.9782,-122.1349,98205,1840037734
Lilliwaup,WA,Washington,Mason,47.4634,-123.1143,98555,1840037788
La Conner,WA,Washington,Skagit,48.3925,-122.4945,98257,1840021068
Sheridan Beach,WA,Washington,King,47.7448,-122.2882,98155,1840037884
Lincoln,WA,Washington,Lincoln,47.829,-118.415,99147,1840037499
Markham,WA,Washington,Grays Harbor,46.9155,-123.9814,98520,1840017359
Eltopia,WA,Washington,Franklin,46.4587,-119.0172,99330,1840037650
Stevenson,WA,Washington,Skamania,45.6944,-121.8933,98648,1840021180
Greenwater,WA,Washington,Pierce,47.1467,-121.6327,98022,1840017343
Copalis Beach,WA,Washington,Grays Harbor,47.1205,-124.1722,98535 98536,1840017356
Roosevelt,WA,Washington,Snohomish,47.8923,-122.0123,98290,1840037586
La Crosse,WA,Washington,Whitman,46.8027,-117.9014,99143,1840037498
Summit,WA,Washington,Pierce,47.1694,-122.3629,98373 98371 98446,1840018456
Ohop,WA,Washington,Pierce,46.9457,-122.1907,98360,1840037801
Malden,WA,Washington,Whitman,47.2296,-117.4732,99149,1840022313
Beverly,WA,Washington,Grant,46.8368,-119.9331,99321,1840037491
Prosser,WA,Washington,Benton,46.2065,-119.7659,99350,1840019890
Lake Roesiger,WA,Washington,Snohomish,47.9839,-121.9129,98290,1840037853
Fern Prairie,WA,Washington,Clark,45.637,-122.3963,98607,1840023890
Maple Valley,WA,Washington,King,47.3664,-122.037,98038,1840019828
Gifford,WA,Washington,Stevens,48.3063,-118.1464,99131,1840037767
Auburn,WA,Washington,King,47.3039,-122.2108,98001 98002 98092,1840018416
Burton,WA,Washington,King,47.389,-122.4607,98070,1840037625
Burlington,WA,Washington,Skagit,48.4676,-122.3298,98233,1840018367
Carrolls,WA,Washington,Cowlitz,46.0715,-122.8623,98626,1840037627
Bayne,WA,Washington,King,47.2951,-121.9096,98022,1840037746
East Cathlamet,WA,Washington,Wahkiakum,46.1968,-123.358,98612,1840037849
Purdy,WA,Washington,Pierce,47.3938,-122.6114,98332,1840023838
Kapowsin,WA,Washington,Pierce,46.9727,-122.2272,98360 98338 98344,1840023832
Ketron,WA,Washington,Pierce,47.1569,-122.6343,98388,1840037558
Connell,WA,Washington,Franklin,46.6627,-118.8403,99326,1840018479
Shore Acres,WA,Washington,Pierce,47.3104,-122.5715,98335,1840037590
Clear Lake,WA,Washington,Skagit,48.4561,-122.2378,98235 98284 98273,1840023932
Kittitas,WA,Washington,Kittitas,46.9844,-120.4198,98934 98926,1840019843
Bucoda,WA,Washington,Thurston,46.7969,-122.8679,98530,1840021143
Ardenvoir,WA,Washington,Chelan,47.7373,-120.369,98811,1840037742
Ellisport,WA,Washington,King,47.4204,-122.4354,98070,1840037649
Bainbridge Island,WA,Washington,Kitsap,47.6439,-122.5434,98110 98061,1840018409
Danville,WA,Washington,Ferry,48.9938,-118.5068,99121,1840037761
Hazelwood,WA,Washington,King,47.5509,-122.1915,98006,1840037663
Holly,WA,Washington,Kitsap,47.5576,-122.9785,98380,1840037775
Valley,WA,Washington,Stevens,48.173,-117.7244,99181,1840025241
Republic,WA,Washington,Ferry,48.6485,-118.733,99166,1840019766
Odessa,WA,Washington,Lincoln,47.3326,-118.6893,99159,1840022295
Edgewood,WA,Washington,Pierce,47.2309,-122.2832,98372 98371,1840019852
Rice,WA,Washington,Stevens,48.4288,-118.1703,99167,1840037810
Shoreline,WA,Washington,King,47.7563,-122.3425,98155 98177 98133 98160,1840021118
Cusick,WA,Washington,Pend Oreille,48.3327,-117.2963,99119,1840021060
Virginia,WA,Washington,Kitsap,47.7073,-122.6374,98370,1840037724
Concrete,WA,Washington,Skagit,48.5371,-121.7511,98237,1840022283
Langley,WA,Washington,Island,48.0336,-122.408,98260,1840019780
Othello,WA,Washington,Adams,46.8226,-119.1654,99344,1840019862
North City,WA,Washington,King,47.7557,-122.3135,98155,1840037689
Hazel Dell,WA,Washington,Clark,45.6797,-122.6553,98665,1840037662
Colfax,WA,Washington,Whitman,46.9032,-117.3386,99111,1840018458
Metaline,WA,Washington,Pend Oreille,48.8539,-117.3898,99152,1840022276
Randle,WA,Washington,Lewis,46.5351,-121.957,98377,1840037809
Millwood,WA,Washington,Spokane,47.6858,-117.2805,99206 99212,1840022289
Snoqualmie Pass,WA,Washington,Kittitas,47.4015,-121.411,98068,1840037862
Bangor,WA,Washington,Kitsap,47.7209,-122.746,98383,1840037618
Thorp,WA,Washington,Kittitas,47.0655,-120.6709,98946,1840018439
Tahlequah,WA,Washington,King,47.3326,-122.5073,98070,1840037596
Prescott,WA,Washington,Walla Walla,46.2989,-118.3126,99348,1840021175
Buckley,WA,Washington,Pierce,47.1614,-122.02,98321,1840018455
Dalkena,WA,Washington,Pend Oreille,48.2449,-117.2377,99156,1840037841
Leland,WA,Washington,Jefferson,47.8918,-122.8866,98376,1840037785
Fruitvale,WA,Washington,Yakima,46.6179,-120.5531,98902,1840037656
Port Hadlock,WA,Washington,Jefferson,48.0318,-122.7582,98339,1840037773
University Place,WA,Washington,Pierce,47.2146,-122.5461,98466 98467 98464,1840021130
Morton,WA,Washington,Lewis,46.5576,-122.2815,98356,1840019882
Deep River,WA,Washington,Wahkiakum,46.3523,-123.6983,98638,1840023929
Elberton,WA,Washington,Whitman,46.9813,-117.2213,99130,1840037648
Kingston,WA,Washington,Kitsap,47.8014,-122.4989,98346,1840017338
Palouse,WA,Washington,Whitman,46.9103,-117.0753,99161,1840019863
Vader,WA,Washington,Lewis,46.4046,-122.9569,98593 98596,1840021163
Donald,WA,Washington,Yakima,46.4737,-120.3923,98951,1840023853
Miles,WA,Washington,Lincoln,47.9107,-118.2925,99122,1840037686
Asotin,WA,Washington,Asotin,46.3372,-117.043,99402,1840018500
Joyce,WA,Washington,Clallam,48.1365,-123.7341,98363,1840037779
Eagledale,WA,Washington,Kitsap,47.6143,-122.5154,98110,1840037643
Port Ludlow,WA,Washington,Jefferson,47.9101,-122.7006,98365,1840018388
Loomis,WA,Washington,Okanogan,48.8235,-119.6398,98827,1840025235
New London,WA,Washington,Grays Harbor,47.0573,-123.9271,98550,1840037504
Desert Aire,WA,Washington,Grant,46.6873,-119.9311,99349,1840037611
Poulsbo,WA,Washington,Kitsap,47.7417,-122.6408,98370,1840019822
Cedonia,WA,Washington,Stevens,48.1538,-118.1692,99137,1840037537
Union,WA,Washington,Mason,47.3475,-123.0952,98592,1840025253
Suquamish,WA,Washington,Kitsap,47.7236,-122.5831,98392 98370,1840018411
Deep Creek,WA,Washington,Spokane,47.6429,-117.7122,99029,1840023917
Yoman,WA,Washington,Pierce,47.1865,-122.7062,98004,1840023916
Cordell,WA,Washington,Okanogan,48.8665,-119.412,98844,1840037757
Hoquiam,WA,Washington,Grays Harbor,46.9857,-123.9006,98550,1840019845
Nespelem,WA,Washington,Okanogan,48.1669,-118.9724,99155,1840022268
Ephrata,WA,Washington,Grant,47.3119,-119.5342,98823,1840019813
Kent,WA,Washington,King,47.3887,-122.2128,98031 98030 98032 98042 98035 98064 98089,1840018424
Mukilteo,WA,Washington,Snohomish,47.9096,-122.3035,98275,1840019793
Boise,WA,Washington,King,47.1804,-122.0157,98022,1840037748
Kirkland,WA,Washington,King,47.6996,-122.1982,98033 98011 98034 98083,1840019836
Waitsburg,WA,Washington,Walla Walla,46.2696,-118.1499,99361,1840021173
Ridgecrest,WA,Washington,King,47.7473,-122.3179,98586 98577,1840023907
Freeman,WA,Washington,Spokane,47.5182,-117.1958,99036,1840037655
Dallesport,WA,Washington,Klickitat,45.6316,-121.1749,98617 98635,1840018525
Redmond,WA,Washington,King,47.6776,-122.1176,98052 98073,1840019835
Wilkeson,WA,Washington,Pierce,47.1034,-122.0496,98396,1840022310
Sisco Heights,WA,Washington,Snohomish,48.1187,-122.1076,98223,1840037510
Lewisville,WA,Washington,Clark,45.8124,-122.5146,98604 98622,1840037855
Kennard Corner,WA,Washington,Snohomish,47.8201,-122.2076,98012,1840037671
Benge,WA,Washington,Adams,46.9093,-118.1025,99105,1840037619
Granger,WA,Washington,Yakima,46.3459,-120.1928,98932,1840019872
Yarrow Point,WA,Washington,King,47.6452,-122.2178,98004,1840022300
Lost Creek,WA,Washington,Pend Oreille,48.6094,-117.3636,99119,1840037790
Moxee City,WA,Washington,Yakima,46.5537,-120.3831,98936,1840037687
Hockinson,WA,Washington,Clark,45.7302,-122.4833,98606,1840017399
Oakville,WA,Washington,Grays Harbor,46.8402,-123.2348,98568,1840019848
Tukwila,WA,Washington,King,47.4749,-122.2727,98108 98178 98168 98188 98138 98190,1840021120
Mabana,WA,Washington,Island,48.0945,-122.4151,98282,1840037567
Kangley,WA,Washington,King,47.3618,-121.8801,98051,1840037782
Clallam Bay,WA,Washington,Clallam,48.2536,-124.2579,98326,1840025247
Newport,WA,Washington,Pend Oreille,48.1791,-117.0546,99156,1840019765
Enetai,WA,Washington,Kitsap,47.5884,-122.6056,98310,1840023794
Clearview,WA,Washington,Snohomish,47.8292,-122.1452,98296 98012 98072,1840023773
Sahalee,WA,Washington,King,47.6348,-122.0554,98074,1840037883
Yelm,WA,Washington,Thurston,46.9398,-122.6261,98576 98597,1840021146
Midway,WA,Washington,Pierce,47.3048,-122.5896,98335,1840037574
Olympia,WA,Washington,Thurston,47.0417,-122.8958,98501 98502 98506 98504 98507 98508,1840019865
Endicott,WA,Washington,Whitman,46.928,-117.6865,99125,1840021137
Lind,WA,Washington,Adams,46.9706,-118.614,99341,1840021134
Fife,WA,Washington,Pierce,47.2327,-122.3519,98424,1840019853
Newport Hills,WA,Washington,King,47.5409,-122.1765,98056,1840037688
Upper Preston,WA,Washington,King,47.5051,-121.9076,98027,1840037827
Pateros,WA,Washington,Okanogan,48.0555,-119.9,98846,1840019763
Nordland,WA,Washington,Jefferson,48.0509,-122.691,98358,1840037579
Tyler,WA,Washington,Spokane,47.436,-117.7835,99004,1840037721
Camden,WA,Washington,Pend Oreille,48.0474,-117.2399,99009,1840037533
Rockport,WA,Washington,Skagit,48.4854,-121.6065,98283,1840018365
Port Orchard,WA,Washington,Kitsap,47.516,-122.6616,98366 98367,1840019821
Preston,WA,Washington,King,47.5237,-121.9271,98027,1840037806
Tieton,WA,Washington,Yakima,46.7027,-120.756,98947,1840022319
Rochester,WA,Washington,Thurston,46.8287,-123.0721,98579,1840018459
Bingen,WA,Washington,Klickitat,45.7151,-121.4695,98605,1840018529
Harbour Pointe,WA,Washington,Snohomish,47.8857,-122.3051,98275,1840037871
Wellpinit,WA,Washington,Stevens,47.8879,-117.988,99040,1840037726
Glacier,WA,Washington,Whatcom,48.8902,-121.9323,98244,1840017292
Farmington,WA,Washington,Whitman,47.0887,-117.0464,99128,1840021140
Eastsound,WA,Washington,San Juan,48.6968,-122.9055,98245,1840037735
Central Park,WA,Washington,Grays Harbor,46.9705,-123.7018,98520,1840017358
Bremerton,WA,Washington,Kitsap,47.5436,-122.7121,98310 98312 98314 98367 98337,1840018410
Friday Harbor,WA,Washington,San Juan,48.5324,-123.0656,98250,1840021065
Carnation,WA,Washington,King,47.6443,-121.9041,98014,1840018421
Lake Shore,WA,Washington,Clark,45.6911,-122.6912,98665 98685,1840037873
Houghton,WA,Washington,King,47.6609,-122.206,98033,1840037664
Lake Cavanaugh,WA,Washington,Skagit,48.3225,-122.0121,98274,1840037851
Lake Stevens,WA,Washington,Snohomish,48.0028,-122.0964,98258 98205,1840019794
Mineral,WA,Washington,Lewis,46.7193,-122.1859,98355,1840025263
Lake Stickney,WA,Washington,Snohomish,47.8709,-122.2596,98087 98204,1840037894
Acme,WA,Washington,Whatcom,48.7146,-122.2293,98220,1840017288
Oyehut,WA,Washington,Grays Harbor,47.0233,-124.1632,98550,1840037697
Mossyrock,WA,Washington,Lewis,46.5305,-122.4887,98564,1840019883
Bridgeport,WA,Washington,Douglas,48.0062,-119.6732,98813,1840018387
Fobes Hill,WA,Washington,Snohomish,47.9392,-122.1341,98290,1840037736
Rosario,WA,Washington,San Juan,48.6487,-122.876,98245,1840037708
Brewster,WA,Washington,Okanogan,48.1034,-119.7758,98812,1840018359
Fox Island,WA,Washington,Pierce,47.2475,-122.6255,98333,1840037870
Canyon Park,WA,Washington,Snohomish,47.7909,-122.1926,98021,1840037626
Rock Island,WA,Washington,Douglas,47.3738,-120.1369,98850,1840019796
High Rock,WA,Washington,Snohomish,47.8129,-121.9826,98272,1840037774
Rockford,WA,Washington,Spokane,47.4512,-117.1309,99030,1840021095
Erlands Point,WA,Washington,Kitsap,47.5998,-122.6929,98312,1840037651
Montesano,WA,Washington,Grays Harbor,47.0108,-123.5868,98563,1840019847
Gorst,WA,Washington,Kitsap,47.5238,-122.7056,98312 98367,1840023795
Johnson,WA,Washington,Whitman,46.6316,-117.1379,99113,1840037669
Alderton,WA,Washington,Pierce,47.1718,-122.2192,98390 98372 98374,1840037523
Dusty,WA,Washington,Whitman,46.8102,-117.6519,99143,1840037642
Tekoa,WA,Washington,Whitman,47.2254,-117.074,99033,1840021135
Bay Center,WA,Washington,Pacific,46.6211,-123.9533,98527,1840017375
La Center,WA,Washington,Clark,45.8585,-122.6752,98629 98642,1840019910
Mazama,WA,Washington,Okanogan,48.5921,-120.404,98862,1840037794
Selleck,WA,Washington,King,47.3757,-121.8684,98051,1840037816
Amanda Park,WA,Washington,Grays Harbor,47.4532,-123.9194,98526,1840023816
Sequim,WA,Washington,Clallam,48.0747,-123.0948,98382,1840021076
Sunnydale,WA,Washington,King,47.4632,-122.3337,98148,1840037713
Van Zandt,WA,Washington,Whatcom,48.789,-122.1918,98244,1840037830
McDonald,WA,Washington,Grant,47.0713,-119.2156,98837,1840037571
Moclips,WA,Washington,Grays Harbor,47.2348,-124.2025,98571 98562,1840018442
Ocean Park,WA,Washington,Pacific,46.4961,-124.0443,98640 98637,1840018468
West Valley,WA,Washington,Yakima,46.5921,-120.6051,98908,1840037892
Thompson Place,WA,Washington,Thurston,47.0554,-122.7835,98516,1840037716
Dungeness,WA,Washington,Clallam,48.1468,-123.1232,98382,1840037641
Birch Bay,WA,Washington,Whatcom,48.923,-122.7543,98230,1840017289
Stratford,WA,Washington,Grant,47.4268,-119.2816,98851,1840037595
Ione,WA,Washington,Pend Oreille,48.7401,-117.4224,99139,1840021061
Tacoma,WA,Washington,Pierce,47.2431,-122.4531,98422 98403 98404 98405 98408 98409 98402 98406 98407 98465 98418 98416 98444 98421 98401 98411 98412 98413 98415 98417 98419 98448 98471 98481 98490,1840021129
Barberton,WA,Washington,Clark,45.7136,-122.6114,98662 98686 98666 98668,1840017397
Yacolt,WA,Washington,Clark,45.8653,-122.4065,98675,1840022333
Coulee Dam,WA,Washington,Okanogan,47.9688,-118.9759,99116,1840022270
Almota,WA,Washington,Whitman,46.7029,-117.4694,99111,1840037524
Skamokawa,WA,Washington,Wahkiakum,46.2704,-123.4571,98647,1840037511
Woodinville,WA,Washington,King,47.7568,-122.1479,98072,1840021121
Swinomish Village,WA,Washington,Skagit,48.4082,-122.5113,98257,1840037887
Methow,WA,Washington,Okanogan,48.1289,-120.0056,98834,1840025237
Bay View,WA,Washington,Skagit,48.487,-122.4628,98273,1840037745
Newaukum,WA,Washington,King,47.2573,-122.1018,98092,1840037578
Meadow Glade,WA,Washington,Clark,45.7523,-122.5614,98604,1840018517
Disautel,WA,Washington,Okanogan,48.345,-119.2299,98841,1840023755
Copalis Crossing,WA,Washington,Grays Harbor,47.1079,-124.0693,98550,1840037634
Burley,WA,Washington,Kitsap,47.4167,-122.6376,98359 98367 98322,1840023793
Riverside,WA,Washington,Okanogan,48.5046,-119.5109,98849,1840021059
Ocean Shores,WA,Washington,Grays Harbor,46.9686,-124.1521,98569,1840019849
Bethel,WA,Washington,Kitsap,47.4874,-122.6176,98367,1840023792
South Hill,WA,Washington,Pierce,47.1203,-122.2848,98375 98374 98373,1840037886
Baring,WA,Washington,King,47.7661,-121.4803,98224,1840017339
Winona,WA,Washington,Whitman,46.9457,-117.8005,99125,1840037514
Leadpoint,WA,Washington,Stevens,48.9094,-117.5875,99114,1840037784
Brooklyn,WA,Washington,Pacific,46.7762,-123.5099,98537,1840037531
Mansfield,WA,Washington,Douglas,47.8118,-119.6384,98830,1840022286
Esperance,WA,Washington,Snohomish,47.7937,-122.3468,98026,1840037867
Springdale,WA,Washington,Stevens,48.0572,-117.7466,99173,1840022275
Okanogan,WA,Washington,Okanogan,48.3683,-119.5775,98840,1840019760
Cedar Mountain,WA,Washington,King,47.4482,-122.0732,98038,1840037535
Moses Lake,WA,Washington,Grant,47.1276,-119.2762,98837,1840019817
Littlerock,WA,Washington,Thurston,46.9018,-123.0179,98512,1840037679
Trentwood,WA,Washington,Spokane,47.6966,-117.2108,99216,1840037718
Mabton,WA,Washington,Yakima,46.2115,-119.9937,98935,1840019873
Klickitat,WA,Washington,Klickitat,45.818,-121.1626,98628,1840017404
Puyallup,WA,Washington,Pierce,47.1794,-122.2901,98372 98374 98373 98371 98352,1840019859
Cinebar,WA,Washington,Lewis,46.6043,-122.5318,98533,1840037756
San de Fuca,WA,Washington,Island,48.2351,-122.7232,98277,1840037739
Cathlamet,WA,Washington,Wahkiakum,46.2058,-123.3836,98612,1840022327
Richardson,WA,Washington,San Juan,48.4515,-122.8988,98261,1840037585
Sumner,WA,Washington,Pierce,47.219,-122.2337,98390,1840021128
Davenport,WA,Washington,Lincoln,47.6562,-118.1519,99122,1840018404
Cliffdell,WA,Washington,Yakima,46.9214,-121.042,98937,1840023851
Fall City,WA,Washington,King,47.5717,-121.9134,98024,1840017342
Dockton,WA,Washington,King,47.3718,-122.4593,98070,1840037639
Conway,WA,Washington,Skagit,48.3356,-122.3444,98238,1840017311
Marshall,WA,Washington,Spokane,47.5649,-117.4994,99224,1840037516
Walla Walla,WA,Washington,Walla Walla,46.0678,-118.3364,99362,1840021174
Canterwood,WA,Washington,Pierce,47.3765,-122.6022,98332,1840037842
Lexington,WA,Washington,Cowlitz,46.1873,-122.9054,98626,1840037677
Country Homes,WA,Washington,Spokane,47.7478,-117.4196,99208 99218 99251,1840017334
Altoona,WA,Washington,Wahkiakum,46.2699,-123.6145,98643,1840023875
South Cle Elum,WA,Washington,Kittitas,47.1859,-120.9522,98943 98922,1840022304
Waldron,WA,Washington,San Juan,48.6876,-123.0369,98297,1840037599
Chesaw,WA,Washington,Okanogan,48.946,-119.0514,98844,1840037754
Sunnyslope,WA,Washington,Kitsap,47.5045,-122.729,98148,1840023968
Olympic View,WA,Washington,Kitsap,47.694,-122.7404,98383,1840037692
Hood,WA,Washington,Skamania,45.7248,-121.5581,98651,1840037555
Elbe,WA,Washington,Pierce,46.7653,-122.1946,98330,1840017364
Venice,WA,Washington,Kitsap,47.667,-122.5799,98110,1840037722
Cumberland,WA,Washington,King,47.2829,-121.9271,98022,1840037759
Ostrander,WA,Washington,Cowlitz,46.1926,-122.8921,98626,1840037695
Cohassett Beach,WA,Washington,Grays Harbor,46.8655,-124.1053,98595,1840017355
Deming,WA,Washington,Whatcom,48.8381,-122.2313,98247 98244,1840018345
Sekiu,WA,Washington,Clallam,48.2637,-124.3012,98381,1840025248
Terrace Heights,WA,Washington,Yakima,46.6022,-120.4474,98901,1840018465
Nemah,WA,Washington,Pacific,46.512,-123.886,98586,1840037577
Neilton,WA,Washington,Grays Harbor,47.4031,-123.8782,98552 98575 98566,1840018443
Grays River,WA,Washington,Wahkiakum,46.3607,-123.5892,98621,1840023877
Ashford,WA,Washington,Pierce,46.7537,-122.0113,98304,1840017363
Boistfort,WA,Washington,Lewis,46.5351,-123.1337,98532,1840037530
Almira,WA,Washington,Lincoln,47.7105,-118.9369,99103,1840021108
Bothell,WA,Washington,King,47.774,-122.2039,98021 98011,1840018419
South Broadway,WA,Washington,Yakima,46.5662,-120.5167,98903,1840037885
Edwall,WA,Washington,Lincoln,47.5046,-117.9511,99008,1840037646
Georgetown,WA,Washington,King,47.3576,-121.9737,98051,1840037766
Maryhill,WA,Washington,Klickitat,45.6928,-120.807,98620,1840017403
Huntsville,WA,Washington,Columbia,46.2871,-118.1072,99328,1840037666
Greenbank,WA,Washington,Island,48.0982,-122.5729,98253,1840037497
Murphys Corner,WA,Washington,Snohomish,47.8782,-122.2068,98012,1840037503
Tokeland,WA,Washington,Pacific,46.709,-123.9839,98590,1840018469
Felida,WA,Washington,Clark,45.7138,-122.7103,98685,1840037495
Fairview,WA,Washington,Kitsap,47.6215,-122.6685,98311,1840037652
Tumwater,WA,Washington,Thurston,46.9925,-122.9227,98501 98512 98511,1840021145
Uniontown,WA,Washington,Whitman,46.539,-117.0862,99179,1840022316
Coupeville,WA,Washington,Island,48.2172,-122.6778,98239,1840021075
River Road,WA,Washington,Clallam,48.0677,-123.1276,98382,1840037861
Duvall,WA,Washington,King,47.7354,-121.9726,98019,1840018427
Marcus,WA,Washington,Stevens,48.6643,-118.06,99126 99151,1840022273
Seattle Heights,WA,Washington,Snohomish,47.8104,-122.324,98036,1840037711
Strandell,WA,Washington,Whatcom,48.9121,-122.3582,98247,1840037594
Key Center,WA,Washington,Pierce,47.3376,-122.7506,98349 98394 98329 98395,1840023833
Grand Mound,WA,Washington,Thurston,46.8051,-123.0119,98579 98531,1840017366
Taholah,WA,Washington,Grays Harbor,47.3283,-124.2728,98587,1840018447
Port Blakely,WA,Washington,Kitsap,47.5973,-122.5101,98110,1840037582
Malone,WA,Washington,Grays Harbor,46.9779,-123.3035,98559 98541,1840026097
Boston Harbor,WA,Washington,Thurston,47.1384,-122.901,98506,1840037622
Rainier,WA,Washington,Thurston,46.8917,-122.6866,98576,1840021147
Menlo,WA,Washington,Pacific,46.6215,-123.6471,98577,1840037683
Azwell,WA,Washington,Chelan,47.9371,-119.8765,98816,1840037744
Glendale,WA,Washington,Island,47.9395,-122.3585,98236,1840037658
Monroe,WA,Washington,Snohomish,47.8594,-121.9854,98272,1840019791
Sawyer,WA,Washington,Yakima,46.4565,-120.3614,98951,1840037587
Clarkston,WA,Washington,Asotin,46.4154,-117.0501,99403,1840018499
Spanaway,WA,Washington,Pierce,47.0979,-122.4233,98387 98445,1840018451
Gig Harbor,WA,Washington,Pierce,47.335,-122.5966,98332 98335,1840019855
Big Lake,WA,Washington,Skagit,48.3933,-122.2422,98274,1840017313
Smyrna,WA,Washington,Grant,46.8393,-119.6623,99357,1840037592
Carlton,WA,Washington,Okanogan,48.2482,-120.1162,98814,1840037751
Monitor,WA,Washington,Chelan,47.4868,-120.4181,98836,1840037797
Des Moines,WA,Washington,King,47.3914,-122.3154,98148 98198,1840018426
Carlisle,WA,Washington,Grays Harbor,47.1548,-124.0985,98536,1840037750
Metaline Falls,WA,Washington,Pend Oreille,48.8616,-117.3707,99153,1840022277
Breidablick,WA,Washington,Kitsap,47.802,-122.6493,98370,1840037623
Snohomish,WA,Washington,Snohomish,47.9277,-122.0971,98290 98291,1840021078
Richland,WA,Washington,Benton,46.2828,-119.2939,99352 99354,1840019889
Parkland,WA,Washington,Pierce,47.1417,-122.4376,98444 98445 98447,1840018453
Veradale,WA,Washington,Spokane,47.6568,-117.1963,99037,1840037723
Kummer,WA,Washington,King,47.2868,-122.0212,98010,1840037561
Woodland,WA,Washington,Cowlitz,45.9147,-122.7503,98674,1840021181
Washougal,WA,Washington,Clark,45.5812,-122.3433,98671,1840021190
Boyds,WA,Washington,Ferry,48.7244,-118.1322,99141,1840026091
Bonney Lake,WA,Washington,Pierce,47.1789,-122.1698,98391,1840018454
South Prairie,WA,Washington,Pierce,47.1373,-122.094,98385,1840022308
Larimers Corner,WA,Washington,Snohomish,47.8918,-122.1446,98296,1840037564
Porter,WA,Washington,Grays Harbor,46.9489,-123.2736,98541,1840023818
Lisabeula,WA,Washington,King,47.4073,-122.5176,98070,1840037565
Saint John,WA,Washington,Whitman,47.0912,-117.5883,99171,1840021139
Spokane Valley,WA,Washington,Spokane,47.6625,-117.2345,99206 99016 99212 99216 99037 99211 99213 99215,1840021094
Bellevue,WA,Washington,King,47.5953,-122.155,98004 98005 98006 98007 98008 98009 98015,1840018417
Custer,WA,Washington,Whatcom,48.9143,-122.6397,98240 98248,1840018344
Orcas,WA,Washington,San Juan,48.5979,-122.9446,98280,1840037694
Diablo,WA,Washington,Whatcom,48.7135,-121.1412,98283,1840037762
Christopher,WA,Washington,King,47.334,-122.2321,98001,1840037539
Midvale Corner,WA,Washington,Island,47.9926,-122.4176,98236,1840037573
Marysville,WA,Washington,Snohomish,48.0812,-122.1559,98271 98270,1840019789
Newcastle,WA,Washington,King,47.5304,-122.1633,98059 98056,1840019831
North Bend,WA,Washington,King,47.4899,-121.7741,98045,1840019833
Three Lakes,WA,Washington,Snohomish,47.942,-121.9924,98290,1840018375
Kendall,WA,Washington,Whatcom,48.9167,-122.1381,98244 98266,1840017293
Kanaskat,WA,Washington,King,47.3204,-121.8937,98051,1840037781
Wilbur,WA,Washington,Lincoln,47.7579,-118.7144,99185,1840022296
Enumclaw,WA,Washington,King,47.2018,-121.9898,98022,1840019825
Nile,WA,Washington,Yakima,46.8368,-120.9455,98937,1840023854
Alderwood Manor,WA,Washington,Snohomish,47.8145,-122.2676,98036,1840017323
Clarkston Heights,WA,Washington,Asotin,46.3963,-117.0824,99403,1840037631
Pacific Beach,WA,Washington,Grays Harbor,47.215,-124.1967,98571,1840023817
Napavine,WA,Washington,Lewis,46.5856,-122.9043,98565 98532,1840019884
Hatton,WA,Washington,Adams,46.7736,-118.8276,99344,1840021133
Shelton,WA,Washington,Mason,47.2186,-123.1128,98584,1840021123
Chimacum,WA,Washington,Jefferson,48.0109,-122.7688,98325,1840037755
Naselle,WA,Washington,Pacific,46.365,-123.8013,98638,1840018467
Grotto,WA,Washington,King,47.7362,-121.4234,98224,1840037772
Bellingham,WA,Washington,Whatcom,48.7534,-122.4683,98229 98225 98226 98228,1840018346
Castle Rock,WA,Washington,Cowlitz,46.2717,-122.9056,98611,1840018501
Pine City,WA,Washington,Whitman,47.2024,-117.5244,99170,1840037700
Nooksack,WA,Washington,Whatcom,48.9276,-122.3213,98247 98276,1840019753
Elma,WA,Washington,Grays Harbor,47.007,-123.4049,98541,1840019844
Kenmore,WA,Washington,King,47.7531,-122.246,98028,1840018423
Ellensburg,WA,Washington,Kittitas,47.001,-120.5491,98926,1840019841
Belmont,WA,Washington,Whitman,47.0879,-117.1624,99158,1840037733
DuPont,WA,Washington,Pierce,47.1079,-122.6496,98327,1840018457
Long Beach,WA,Washington,Pacific,46.3555,-124.0557,98631,1840019880
Seabeck,WA,Washington,Kitsap,47.6437,-122.8219,98380,1840023799
Granite Falls,WA,Washington,Snohomish,48.0874,-121.9705,98252,1840019787
Tonasket,WA,Washington,Okanogan,48.7087,-119.4431,98855,1840021057
Otis Orchards,WA,Washington,Spokane,47.7005,-117.1063,99027,1840037696
Milton,WA,Washington,Pierce,47.2522,-122.3153,98354,1840019857
West Pasco,WA,Washington,Franklin,46.2522,-119.1842,99301,1840037891
Badger,WA,Washington,Benton,46.2001,-119.3595,99320,1840037527
Lamont,WA,Washington,Whitman,47.2003,-117.905,99017,1840021142
Ravensdale,WA,Washington,King,47.3563,-121.9692,98051 98038,1840018412
Rollingbay,WA,Washington,Kitsap,47.6645,-122.5101,98110,1840037508
Rocky Point,WA,Washington,Kitsap,47.5877,-122.6665,98312,1840037507
Garrett,WA,Washington,Walla Walla,46.0634,-118.3863,99362,1840017384
Grayland,WA,Washington,Grays Harbor,46.8304,-124.0898,98547,1840017360
Gilberton,WA,Washington,Kitsap,47.639,-122.6049,98311,1840037657
Withrow,WA,Washington,Douglas,47.7049,-119.8087,98858,1840037728
Stanwood,WA,Washington,Snohomish,48.245,-122.3427,98292,1840021079
Sudden Valley,WA,Washington,Whatcom,48.7199,-122.3468,98229,1840037740
Meridian,WA,Washington,King,47.6695,-122.3304,98103,1840037684
Aberdeen Gardens,WA,Washington,Grays Harbor,47.0587,-123.7792,98520,1840037845
Possession,WA,Washington,Island,47.9176,-122.3762,98236,1840037704
Benton City,WA,Washington,Benton,46.2624,-119.4814,99320,1840018480
Bickleton,WA,Washington,Klickitat,46.0056,-120.308,99322,1840017400
Elmer City,WA,Washington,Okanogan,48,-118.9528,99124,1840021058
Doty,WA,Washington,Lewis,46.6345,-123.2776,98532,1840037640
East Wenatchee,WA,Washington,Douglas,47.4172,-120.2809,98802,1840019795
Newman Lake,WA,Washington,Spokane,47.7768,-117.0949,99025,1840037604
Freeland,WA,Washington,Island,48.0185,-122.5358,98249,1840017317
Indianola,WA,Washington,Kitsap,47.7566,-122.5143,98342 98346 98370,1840017337
Cowiche,WA,Washington,Yakima,46.6729,-120.7154,98923,1840023852
Husum,WA,Washington,Klickitat,45.7993,-121.487,98672,1840037776
Pataha,WA,Washington,Garfield,46.4732,-117.5366,99347,1840037699
Lamona,WA,Washington,Lincoln,47.3593,-118.4825,99144,1840037563
Skokomish,WA,Washington,Mason,47.3298,-123.1579,98584,1840018433
Vaughn,WA,Washington,Pierce,47.355,-122.7773,98394 98329,1840023841
Ruby,WA,Washington,Pend Oreille,48.5221,-117.2991,99119,1840037812
Bryant,WA,Washington,Snohomish,48.24,-122.1638,98223,1840023772
Coalfield,WA,Washington,King,47.5026,-122.1218,98059,1840037540
Swede Heaven,WA,Washington,Snohomish,48.2826,-121.7133,98223,1840037821
Spokane,WA,Washington,Spokane,47.6671,-117.433,99201 99203 99202 99205 99204 99207 99208 99224 99223 99001 99212 99209 99210 99219 99220 99252 99256 99258 99260,1840021093
Brady,WA,Washington,Grays Harbor,47.0064,-123.5321,98563,1840017357
Spring Glen,WA,Washington,King,47.5612,-121.8615,98024,1840037819
Hoodsport,WA,Washington,Mason,47.402,-123.1542,98548,1840025233
Leavenworth,WA,Washington,Chelan,47.5943,-120.6633,98826,1840019778
Tanglewilde,WA,Washington,Thurston,47.0511,-122.781,98503 98516,1840037899
Bow,WA,Washington,Skagit,48.5618,-122.3982,98232,1840037749
Carlsborg,WA,Washington,Clallam,48.0842,-123.1697,98382,1840017319
North Lynnwood,WA,Washington,Snohomish,47.8534,-122.2762,98087 98037,1840037895
Cedar Falls,WA,Washington,King,47.4254,-121.7768,98045,1840037752
Chelan,WA,Washington,Chelan,47.8414,-120.026,98816,1840018369
Wilson Creek,WA,Washington,Grant,47.4229,-119.1176,98860,1840022294
Latah,WA,Washington,Spokane,47.282,-117.1554,99018,1840021097
Brownsville,WA,Washington,Kitsap,47.6557,-122.6165,98370,1840037532
Amber,WA,Washington,Spokane,47.3518,-117.7116,99004,1840037614
Zenith,WA,Washington,King,47.3865,-122.3232,98198,1840037731
Goodnoe Hills,WA,Washington,Klickitat,45.7512,-120.4803,98620,1840037553
Camas,WA,Washington,Clark,45.6006,-122.4301,98607,1840018524
Olalla,WA,Washington,Kitsap,47.4293,-122.5457,98359,1840037691
Basin City,WA,Washington,Franklin,46.589,-119.1567,99343,1840017379
Blaine,WA,Washington,Whatcom,48.9839,-122.7406,98230 98231,1840018347
Oroville,WA,Washington,Okanogan,48.9421,-119.4293,98844,1840019762
Orchards,WA,Washington,Clark,45.6888,-122.5305,98682,1840018519
Union Gap,WA,Washington,Yakima,46.5569,-120.4937,98903,1840021152
Mead,WA,Washington,Spokane,47.7795,-117.35,99021,1840023786
Manzanita,WA,Washington,Kitsap,47.6762,-122.5596,98110,1840037568
Pasco,WA,Washington,Franklin,46.2499,-119.1271,99301 99302,1840019888
Touchet,WA,Washington,Walla Walla,46.0411,-118.6724,99360,1840018488
Pe Ell,WA,Washington,Lewis,46.5712,-123.2981,98572 98522,1840022321
Sappho,WA,Washington,Clallam,48.0701,-124.2794,98305,1840037815
Hunters,WA,Washington,Stevens,48.1168,-118.2019,99137,1840037665
Gleed,WA,Washington,Yakima,46.6594,-120.6025,98937 98908,1840017370
Fairfield,WA,Washington,Spokane,47.3848,-117.1748,99012,1840021096
Torboy,WA,Washington,Ferry,48.6772,-118.6689,99166,1840026090
Cashmere,WA,Washington,Chelan,47.5174,-120.4669,98815,1840018368
Willapa,WA,Washington,Pacific,46.6755,-123.6648,98577,1840025262
Issaquah,WA,Washington,King,47.5414,-122.0436,98029 98027,1840018422
Toppenish,WA,Washington,Yakima,46.3807,-120.3125,98948,1840021151
Finley,WA,Washington,Benton,46.1697,-119.0446,99337,1840017380
Darrington,WA,Washington,Snohomish,48.2542,-121.6029,98241,1840021081
Picnic Point,WA,Washington,Snohomish,47.8744,-122.3077,98026 98087,1840037897
Aeneas,WA,Washington,Okanogan,48.5474,-118.9786,98855,1840037741
Cedarhurst,WA,Washington,King,47.482,-122.4793,98070,1840037536
Four Lakes,WA,Washington,Spokane,47.5582,-117.5891,99004 99014,1840023784
Dayton,WA,Washington,Columbia,46.3171,-117.9768,99328,1840018486
Port Madison,WA,Washington,Kitsap,47.7026,-122.5243,98110,1840037703
Orting,WA,Washington,Pierce,47.0967,-122.2113,98360,1840019858
Wheeler,WA,Washington,Grant,47.1307,-119.172,98837,1840037601
Fircrest,WA,Washington,Pierce,47.2308,-122.5157,98466,1840019854
Lebam,WA,Washington,Pacific,46.5641,-123.551,98577 98554,1840017376
Marrowstone,WA,Washington,Jefferson,48.0568,-122.6933,98358,1840037856
North Puyallup,WA,Washington,Pierce,47.2015,-122.2744,98372,1840037690
Five Corners,WA,Washington,Clark,45.6882,-122.574,98662,1840037869
Graham,WA,Washington,Pierce,47.0407,-122.2757,98338,1840017365
Longview Heights,WA,Washington,Cowlitz,46.1797,-122.9578,98632,1840037874
Hobart,WA,Washington,King,47.412,-121.996,98038,1840017344
Point Roberts,WA,Washington,Whatcom,48.9883,-123.0576,98281,1840025234
Town and Country,WA,Washington,Spokane,47.7259,-117.4221,99208,1840037888
Lake Hills,WA,Washington,King,47.6134,-122.1215,98008,1840037675
Rosedale,WA,Washington,Pierce,47.3453,-122.6376,98332,1840023839
Irondale,WA,Washington,Jefferson,48.042,-122.7727,98339,1840037778
Dishman,WA,Washington,Spokane,47.6568,-117.2833,99212,1840037638
Bayview,WA,Washington,Pierce,47.2795,-122.6057,98335,1840037732
Conconully,WA,Washington,Okanogan,48.5575,-119.7513,98819,1840022269
Entiat,WA,Washington,Chelan,47.6781,-120.2171,98822,1840019777
Lochsloy,WA,Washington,Snohomish,48.0597,-122.0411,98258,1840037500
Brinnon,WA,Washington,Jefferson,47.6688,-122.925,98320,1840017329
Seahurst,WA,Washington,King,47.4693,-122.3621,98166,1840037710
Dixie,WA,Washington,Walla Walla,46.1392,-118.148,99329 99361,1840018487
Eastgate,WA,Washington,King,47.5727,-122.1458,98006,1840017341
Blockhouse,WA,Washington,Klickitat,45.8396,-120.9376,98620,1840037621
Buena,WA,Washington,Yakima,46.4299,-120.3176,98921 98953,1840023850
Grapeview,WA,Washington,Mason,47.3316,-122.8413,98524 98546,1840037554
Startup,WA,Washington,Snohomish,47.8671,-121.7491,98294 98293,1840018380
Hayford,WA,Washington,Spokane,47.6063,-117.5638,99224,1840037661
Westport,WA,Washington,Grays Harbor,46.8919,-124.112,98595,1840021124
Southworth,WA,Washington,Kitsap,47.5126,-122.5298,98366 98384 98386,1840023800
Twisp,WA,Washington,Okanogan,48.3615,-120.1165,98856,1840022271
Milan,WA,Washington,Spokane,47.9668,-117.3316,99003,1840037685
Ritzville,WA,Washington,Adams,47.1259,-118.3821,99169,1840019861
Lake Goodwin,WA,Washington,Snohomish,48.1388,-122.2804,98223 98292 98271,1840037872
McMurray,WA,Washington,Skagit,48.3162,-122.2354,98274,1840037682
Portage,WA,Washington,King,47.4073,-122.4376,98070,1840037506
Lake Bosworth,WA,Washington,Snohomish,48.0532,-121.9812,98290 98252,1840037850
Fords Prairie,WA,Washington,Lewis,46.7461,-123.0028,98531,1840017377
Carson,WA,Washington,Skamania,45.7353,-121.8219,98610,1840017391
Mount Vista,WA,Washington,Clark,45.7373,-122.6315,98642 98686,1840037858
Vancouver,WA,Washington,Clark,45.6352,-122.5972,98684 98664 98660 98661 98662 98663 98682 98683 98687,1840021189
Chelan Falls,WA,Washington,Chelan,47.7995,-119.9883,98817,1840025245
Espanola,WA,Washington,Spokane,47.6032,-117.7416,99022,1840037547
Battle Ground,WA,Washington,Clark,45.7763,-122.5415,98604,1840018523
Summitview,WA,Washington,Yakima,46.598,-120.6514,98908,1840037863
Geneva,WA,Washington,Whatcom,48.7462,-122.4063,98229,1840017291
Queets,WA,Washington,Jefferson,47.5314,-124.3386,98331,1840037807
Wollochet,WA,Washington,Pierce,47.2827,-122.5769,98335,1840023843
College Place,WA,Washington,Walla Walla,46.043,-118.3869,99324 99362,1840018490
Garfield,WA,Washington,Whitman,47.0099,-117.1395,99130,1840021141
Ruff,WA,Washington,Grant,47.1696,-118.9983,98832,1840037709
Bell Hill,WA,Washington,Clallam,48.055,-123.087,98382,1840037847
Glenwood,WA,Washington,Klickitat,46.0228,-121.2926,98619,1840037769
Riverbend,WA,Washington,King,47.4651,-121.7491,98045,1840037860
Samish,WA,Washington,Skagit,48.6109,-122.4357,98232,1840037814
Trout Lake,WA,Washington,Klickitat,45.9976,-121.5291,98650,1840024000
Mount Vernon,WA,Washington,Skagit,48.4203,-122.3114,98274 98273,1840019774
Ferndale,WA,Washington,Whatcom,48.8525,-122.5893,98248,1840019751
Hansville,WA,Washington,Kitsap,47.8978,-122.5579,98340 98346,1840023796
Wickersham,WA,Washington,Whatcom,48.6551,-122.2129,98220,1840037832
White Salmon,WA,Washington,Klickitat,45.7284,-121.4853,98672,1840021191
Oysterville,WA,Washington,Pacific,46.549,-124.0282,98640,1840037698
Aberdeen,WA,Washington,Grays Harbor,46.9768,-123.8083,98520,1840018446
Melbourne,WA,Washington,Grays Harbor,46.9454,-123.626,98563,1840037502
Plymouth,WA,Washington,Benton,45.9346,-119.3503,99346,1840037505
Winlock,WA,Washington,Lewis,46.4907,-122.9342,98596,1840021164
Satsop,WA,Washington,Grays Harbor,47.0223,-123.4737,98583 98541,1840018445
Merritt,WA,Washington,Chelan,47.781,-120.8432,98826,1840037795
Peshastin,WA,Washington,Chelan,47.5707,-120.604,98847,1840037803
Marble,WA,Washington,Stevens,48.8491,-117.9017,99157,1840037792
South Snohomish,WA,Washington,Snohomish,47.899,-122.109,98296,1840037593
Richmond Highlands,WA,Washington,King,47.7612,-122.3462,98133,1840037707
Goldendale,WA,Washington,Klickitat,45.8214,-120.8191,98620,1840019911
Nisqually,WA,Washington,Thurston,47.0565,-122.7012,98513,1840037738
Tillicum,WA,Washington,Pierce,47.1234,-122.5571,98498,1840037717
Anatone,WA,Washington,Asotin,46.1349,-117.1324,99401,1840037490
Tulalip,WA,Washington,Snohomish,48.0684,-122.2918,98271,1840037719
Orient,WA,Washington,Ferry,48.8637,-118.2059,99160,1840025243
Dieringer,WA,Washington,Pierce,47.2407,-122.2251,98390,1840037544
Frederickson,WA,Washington,Pierce,47.0914,-122.3594,98375 98387 98446,1840037551
Keller,WA,Washington,Ferry,48.0851,-118.7162,99140,1840023756
Marblemount,WA,Washington,Skagit,48.5379,-121.4346,98267,1840017315
Turner,WA,Washington,Columbia,46.4124,-117.8547,99328,1840037513
Everett,WA,Washington,Snohomish,47.9524,-122.1672,98207 98204 98205 98203 98201 98208 98275 98206 98213,1840019785
Burien,WA,Washington,King,47.4761,-122.3393,98146 98148 98168 98166 98062,1840018420
Riner,VA,Virginia,Montgomery,37.0675,-80.4405,24149,1840024792
Powhatan,VA,Virginia,Powhatan,37.5427,-77.9267,23139,1840037427
Natural Bridge,VA,Virginia,Rockbridge,37.6301,-79.5431,24578,1840037316
Chamberlayne Heights,VA,Virginia,Henrico,37.6274,-77.4322,23227,1840037429
Manassas Park,VA,Virginia,Manassas Park (city),38.7717,-77.4448,20111,1840003838
McClure,VA,Virginia,Dickenson,37.1026,-82.3763,24269,1840037348
Brownsburg,VA,Virginia,Rockbridge,37.9285,-79.3192,24415,1840037333
Burgess,VA,Virginia,Northumberland,37.8832,-76.3477,22432,1840037335
Lake Barcroft,VA,Virginia,Fairfax,38.8514,-77.1579,22044 22041,1840006033
Clover,VA,Virginia,Halifax,36.839,-78.7284,23962 24534,1840024810
Columbia,VA,Virginia,Fluvanna,37.7533,-78.1638,23038,1840006343
Verona,VA,Virginia,Augusta,38.1939,-79.0087,24401 24482,1840006248
Fairfax,VA,Virginia,Fairfax (city),38.8531,-77.2998,22030 22031 22034 22036 22037 22038,1840001650
Falmouth,VA,Virginia,Stafford,38.3319,-77.4655,22405,1840006215
Scottsburg,VA,Virginia,Halifax,36.7588,-78.7914,24589,1840006506
Ashburn,VA,Virginia,Loudoun,39.0302,-77.4712,20166 20147 20146 20149,1840024495
Big Stone Gap,VA,Virginia,Wise,36.8615,-82.7774,24219,1840006481
Gwynn,VA,Virginia,Mathews,37.4984,-76.2883,23064 23066,1840026848
Jewell Valley,VA,Virginia,Buchanan,37.2473,-81.8015,24622,1840037386
Waynesboro,VA,Virginia,Waynesboro (city),38.0673,-78.9012,22980,1840003848
University Heights,VA,Virginia,Albemarle,38.041,-78.5222,22903,1840037464
Batesville,VA,Virginia,Albemarle,37.9957,-78.7222,22903,1840037329
Whitetop,VA,Virginia,Grayson,36.6015,-81.6257,24292,1840037408
Nellysford,VA,Virginia,Nelson,37.913,-78.8828,22958,1840024714
Montrose,VA,Virginia,Henrico,37.5199,-77.3771,23223 23231,1840006389
Lexington,VA,Virginia,Lexington (city),37.7825,-79.444,24450,1840001689
Clinchco,VA,Virginia,Dickenson,37.1598,-82.3564,24226,1840006458
Dante,VA,Virginia,Russell,36.9791,-82.2961,24237 24272,1840026885
Ivor,VA,Virginia,Southampton,36.9052,-76.8978,23866,1840006521
Montross,VA,Virginia,Westmoreland,38.0941,-76.8229,22520,1840006283
Wintergreen,VA,Virginia,Nelson,37.9161,-78.9382,22958 22967,1840024717
Vesta,VA,Virginia,Patrick,36.7168,-80.3578,24120,1840037281
Henry,VA,Virginia,Franklin,36.8293,-79.9917,24102,1840037346
Jonesville,VA,Virginia,Lee,36.6871,-83.1152,24263,1840006534
Evington,VA,Virginia,Campbell,37.2338,-79.2895,24550,1840037376
Duffield,VA,Virginia,Scott,36.7196,-82.7962,24244,1840006542
McKenney,VA,Virginia,Dinwiddie,36.9853,-77.7219,23872,1840006463
Fancy Gap,VA,Virginia,Carroll,36.6771,-80.6997,24328,1840006524
Goshen,VA,Virginia,Rockbridge,37.9906,-79.5071,24439,1840006316
Onley,VA,Virginia,Accomack,37.6917,-75.7182,23417 23418,1840006327
Exmore,VA,Virginia,Northampton,37.5295,-75.8283,23350,1840006415
Schuyler,VA,Virginia,Nelson,37.7939,-78.7002,22969,1840024715
Kenbridge,VA,Virginia,Lunenburg,36.9608,-78.1283,23944,1840006497
Penhook,VA,Virginia,Franklin,36.9905,-79.6318,24137,1840006475
Mollusk,VA,Virginia,Lancaster,37.7301,-76.538,22503,1840037438
Toga,VA,Virginia,Buckingham,37.494,-78.6333,23936,1840037306
Laurel Park,VA,Virginia,Henry,36.6871,-79.7872,24112,1840006556
Bayside,VA,Virginia,Accomack,37.7547,-75.7129,23417,1840024719
Lignum,VA,Virginia,Culpeper,38.416,-77.8267,22726,1840037367
Winchester,VA,Virginia,Winchester (city),39.1734,-78.1745,22601 22604,1840001623
Lebanon,VA,Virginia,Russell,36.8992,-82.0783,24266,1840006492
Tysons,VA,Virginia,Fairfax,38.9187,-77.2311,22182,1840006040
Mappsburg,VA,Virginia,Accomack,37.576,-75.7593,23420 23423,1840024733
Orange,VA,Virginia,Orange,38.2484,-78.1125,22960,1840006268
Midlothian,VA,Virginia,Chesterfield,37.506,-77.6492,23113,1840037396
Calverton,VA,Virginia,Fauquier,38.6355,-77.6661,20119 22728 20138,1840024590
Fulks Run,VA,Virginia,Rockingham,38.6601,-78.9061,22830,1840037364
Amelia Court House,VA,Virginia,Amelia,37.3366,-77.9882,23002,1840026850
Boydton,VA,Virginia,Mecklenburg,36.666,-78.3908,23917,1840006537
Konnarock,VA,Virginia,Washington,36.666,-81.6382,24236,1840037389
Kilmarnock,VA,Virginia,Lancaster,37.7118,-76.3834,22482,1840006370
Crockett,VA,Virginia,Wythe,36.8862,-81.192,24323,1840037313
Buckingham,VA,Virginia,Buckingham,37.5501,-78.5556,23921,1840037422
Hamilton,VA,Virginia,Loudoun,39.135,-77.6641,20158,1840005870
Broadlands,VA,Virginia,Loudoun,39.0169,-77.5166,20148,1840024498
Mineral,VA,Virginia,Louisa,38.0068,-77.9061,23117,1840006313
Apple Grove,VA,Virginia,Louisa,37.8929,-77.8969,23117,1840037409
Susan,VA,Virginia,Mathews,37.366,-76.3136,23163,1840037304
Free Union,VA,Virginia,Albemarle,38.1539,-78.5595,22901 22940,1840026775
Keokee,VA,Virginia,Lee,36.8622,-82.9161,24265,1840006533
Cleveland,VA,Virginia,Russell,36.9434,-82.1527,24225,1840006491
Fairfax Station,VA,Virginia,Fairfax,38.7942,-77.3358,22039 22030 22032,1840024566
Bensley,VA,Virginia,Chesterfield,37.4469,-77.442,23234 23237,1840006408
Lebanon Church,VA,Virginia,Shenandoah,39.0551,-78.3681,22657,1840037269
Brumley Gap,VA,Virginia,Washington,36.8021,-82.0268,24210,1840037357
Patrick Springs,VA,Virginia,Patrick,36.6344,-80.1985,24171 24133,1840006548
Wachapreague,VA,Virginia,Accomack,37.6062,-75.6897,23480,1840003849
Spencer,VA,Virginia,Henry,36.6199,-80.0073,24165,1840037302
Gressitt,VA,Virginia,King and Queen,37.4874,-76.7077,23156,1840037379
Commonwealth,VA,Virginia,Albemarle,38.0749,-78.4872,22901,1840037467
Oak Level,VA,Virginia,Henry,36.7944,-79.9392,24055,1840006554
Adwolf,VA,Virginia,Smyth,36.7929,-81.5927,24354 24319,1840006511
Cana,VA,Virginia,Carroll,36.5815,-80.6688,24317,1840006525
Haynesville,VA,Virginia,Richmond,37.9501,-76.6625,22572,1840037267
Jarratt,VA,Virginia,Greensville,36.816,-77.4689,23867 23870,1840006498
Strasburg,VA,Virginia,Shenandoah,38.9944,-78.3541,22657,1840006004
Charles City,VA,Virginia,Charles City,37.344,-77.0687,23030,1840026851
Rose Hill Farms,VA,Virginia,Fairfax,38.7776,-77.113,22310,1840037354
Radford,VA,Virginia,Radford (city),37.1229,-80.5583,24142 24141 24129 24143,1840003864
Savageville,VA,Virginia,Accomack,37.6826,-75.7591,23417,1840024745
Emory,VA,Virginia,Washington,36.78,-81.828,24361 24340,1840024856
Cartersville,VA,Virginia,Cumberland,37.6674,-78.0883,23027,1840037336
Apple Mountain Lake,VA,Virginia,Warren,38.9231,-78.1033,22642,1840026696
Richmond,VA,Virginia,Richmond (city),37.5294,-77.4755,23219 23222 23223 23220 23221 23226 23227 23224 23225 23230 23235 23234 23173 23218 23232 23241 23242 23249 23255 23260 23261 23269 23273 23274 23276 23278 23279 23282 23284 23285 23286 23288 23289 23290 23291 23292 23293 23295 23297 23298,1840001698
Barracks,VA,Virginia,Albemarle,38.0576,-78.5133,22901,1840037465
Alberta,VA,Virginia,Brunswick,36.8553,-77.8937,23821,1840006508
Luray,VA,Virginia,Page,38.6653,-78.4545,22835,1840006141
Middleburg,VA,Virginia,Loudoun,38.9716,-77.7427,20118 20117,1840005874
Centreville,VA,Virginia,Fairfax,38.8391,-77.4388,20124 20121 20120 20122,1840006015
Sherando,VA,Virginia,Augusta,37.9889,-78.9442,22952 24477,1840006246
Drakes Branch,VA,Virginia,Charlotte,36.9933,-78.601,23937,1840006464
Wicomico Church,VA,Virginia,Northumberland,37.8151,-76.3777,22473,1840037283
Short Pump,VA,Virginia,Henrico,37.6549,-77.6201,23059 23233,1840006394
Fairview Beach,VA,Virginia,King George,38.3282,-77.2423,22485,1840001665
Lunenburg,VA,Virginia,Lunenburg,36.9585,-78.2683,23974 23952,1840026889
Mustoe,VA,Virginia,Highland,38.3237,-79.6403,24465,1840037414
Chilhowie,VA,Virginia,Smyth,36.801,-81.6835,24319,1840006514
Newington,VA,Virginia,Fairfax,38.7358,-77.1993,22153 22150 22079 22122,1840006021
Greenbush,VA,Virginia,Accomack,37.7398,-75.6797,23357,1840024728
Glen Lyn,VA,Virginia,Giles,37.373,-80.8576,24093,1840006431
Ridgeway,VA,Virginia,Henry,36.5781,-79.8583,24148,1840006560
Gargatha,VA,Virginia,Accomack,37.7905,-75.5819,23421,1840024726
Massanutten,VA,Virginia,Rockingham,38.4115,-78.7269,22840,1840006132
Rustburg,VA,Virginia,Campbell,37.2712,-79.0961,24588,1840006436
Providence Forge,VA,Virginia,New Kent,37.4418,-77.0436,23140,1840037442
Boykins,VA,Virginia,Southampton,36.5778,-77.1989,23827,1840006517
Lee Mont,VA,Virginia,Accomack,37.7799,-75.6802,23421,1840024731
Monterey,VA,Virginia,Highland,38.4116,-79.5809,24465,1840006214
Dungannon,VA,Virginia,Scott,36.8284,-82.4683,24245,1840006543
Wilderness,VA,Virginia,Orange,38.3257,-77.7258,22553,1840037284
Allisonia,VA,Virginia,Pulaski,36.9342,-80.7255,24347,1840024799
Rose Hill,VA,Virginia,Lee,36.667,-83.3753,24281,1840006532
Bowling Green,VA,Virginia,Caroline,38.0533,-77.3473,22427 22428,1840006303
Mappsville,VA,Virginia,Accomack,37.8433,-75.5689,23407 23359 23308,1840024734
Mountain Road,VA,Virginia,Halifax,36.7585,-78.989,24558,1840024812
Virginia Beach,VA,Virginia,Virginia Beach (city),36.7335,-76.0435,23459 23451 23453 23452 23455 23457 23456 23454 23460 23461 23462 23464 23450 23458 23463 23465 23466 23467 23471 23479,1840003871
Toms Brook,VA,Virginia,Shenandoah,38.9469,-78.4397,22660,1840006005
Boston,VA,Virginia,Accomack,37.6039,-75.8437,23420,1840024721
Elliston,VA,Virginia,Montgomery,37.2164,-80.2245,24087,1840024789
Gordonsville,VA,Virginia,Orange,38.1362,-78.1877,22942,1840006267
Montvale,VA,Virginia,Bedford,37.3866,-79.7253,24064 24122 24178,1840026837
Mount Hermon,VA,Virginia,Pittsylvania,36.6716,-79.4196,24540,1840026888
Occoquan,VA,Virginia,Prince William,38.6823,-77.2604,22125,1840006108
Craigsville,VA,Virginia,Augusta,38.0842,-79.3842,24430,1840006250
Herndon,VA,Virginia,Fairfax,38.9699,-77.3867,20170 20172 20192 22095,1840006037
Troutville,VA,Virginia,Botetourt,37.4167,-79.8779,24175,1840006380
Greenbackville,VA,Virginia,Accomack,38.0105,-75.3869,23356,1840024727
Zuni,VA,Virginia,Isle of Wight,36.866,-76.8308,23898,1840037449
Manakin,VA,Virginia,Goochland,37.6015,-77.7022,23238,1840037392
McDowell,VA,Virginia,Highland,38.3357,-79.4906,24458,1840037315
Glasgow,VA,Virginia,Rockbridge,37.6346,-79.4514,24555,1840006315
Hayfield,VA,Virginia,Fairfax,38.7534,-77.132,22306 22315,1840024573
Timberville,VA,Virginia,Rockingham,38.6341,-78.7729,22815 22853,1840006139
Jetersville,VA,Virginia,Amelia,37.2943,-78.0942,23083,1840037384
Countryside,VA,Virginia,Loudoun,39.0517,-77.4125,20165,1840024500
Mount Crawford,VA,Virginia,Rockingham,38.3601,-78.9413,22841,1840006138
Woolwine,VA,Virginia,Patrick,36.7899,-80.2773,24185,1840037460
Eagle Rock,VA,Virginia,Botetourt,37.6407,-79.8012,24085,1840037359
Crystal Hill,VA,Virginia,Halifax,36.8557,-78.9089,24539,1840037375
Stonega,VA,Virginia,Wise,36.9532,-82.7913,24216,1840037320
Edgerton,VA,Virginia,Brunswick,36.779,-77.7775,23868,1840037290
Arrington,VA,Virginia,Nelson,37.6744,-78.8929,22922,1840024712
Carrollton,VA,Virginia,Isle of Wight,36.9394,-76.5264,23314,1840024808
Gore,VA,Virginia,Frederick,39.264,-78.3319,22637,1840037266
Acorn,VA,Virginia,Westmoreland,38.0193,-76.6491,22529,1840037285
Bastian,VA,Virginia,Bland,37.1521,-81.1501,24314,1840037328
Stafford,VA,Virginia,Stafford,38.4221,-77.4083,22554,1840024663
Hanover,VA,Virginia,Hanover,37.7668,-77.3706,23069,1840026796
Woodlake,VA,Virginia,Chesterfield,37.4216,-77.6783,23112,1840026845
Fort Mitchell,VA,Virginia,Lunenburg,36.9182,-78.4861,23937,1840037363
Augusta Springs,VA,Virginia,Augusta,38.108,-79.3352,24411 24430,1840024682
Chesapeake,VA,Virginia,Chesapeake (city),36.6778,-76.3024,23323 23325 23324 23322 23321 23320 23326 23327 23328,1840003874
Metompkin,VA,Virginia,Accomack,37.7671,-75.6054,23421,1840024735
Maurertown,VA,Virginia,Shenandoah,38.9325,-78.4615,22644,1840026690
Tappahannock,VA,Virginia,Essex,37.9185,-76.8665,22560,1840006311
Yale,VA,Virginia,Sussex,36.8457,-77.2875,23897,1840037301
New Baltimore,VA,Virginia,Fauquier,38.7495,-77.7151,20187,1840024594
Syria,VA,Virginia,Madison,38.4879,-78.3261,22727,1840037305
Idylwood,VA,Virginia,Fairfax,38.8896,-77.2056,22046 22043,1840006032
Urbanna,VA,Virginia,Middlesex,37.6395,-76.5747,23175,1840003850
Haysi,VA,Virginia,Dickenson,37.215,-82.2931,24256,1840006457
Virgilina,VA,Virginia,Halifax,36.5463,-78.7755,24598,1840003868
Mouth of Wilson,VA,Virginia,Grayson,36.5896,-81.3365,24363,1840037399
Round Hill,VA,Virginia,Loudoun,39.1319,-77.7681,20141 20142,1840005876
Williamsville,VA,Virginia,Bath,38.1948,-79.5709,24487,1840037458
Whitesville,VA,Virginia,Accomack,37.7816,-75.6636,23421,1840024749
Catlett,VA,Virginia,Fauquier,38.654,-77.637,20119,1840023873
Ebony,VA,Virginia,Brunswick,36.576,-77.984,23845,1840024815
Coeburn,VA,Virginia,Wise,36.9451,-82.469,24230,1840006482
Bassett,VA,Virginia,Henry,36.7615,-79.9865,24055,1840006551
Purcellville,VA,Virginia,Loudoun,39.1378,-77.7109,20132 20134,1840005875
Arlington,VA,Virginia,Arlington,38.8786,-77.1011,22209 22203 22202 22201 22207 22206 22205 22204 22214 22211 22213 22210 22212 22215 22216 22217 22219 22225 22226 22227 22230 22240 22241 22242 22243 22244 22245 22246 22350,1840006112
Blackstone,VA,Virginia,Nottoway,37.0821,-78.0029,23824,1840006460
New River,VA,Virginia,Pulaski,37.1408,-80.5929,24141,1840024803
Twin Lakes,VA,Virginia,Greene,38.2504,-78.4417,22968,1840026751
Stanleytown,VA,Virginia,Henry,36.7512,-79.9521,24168 24055,1840006558
Appalachia,VA,Virginia,Wise,36.9096,-82.7881,24216,1840006480
Heathsville,VA,Virginia,Northumberland,37.92,-76.4785,22473,1840026795
Covington,VA,Virginia,Covington (city),37.7786,-79.9868,24426,1840001688
Amonate,VA,Virginia,Tazewell,37.1909,-81.6387,24601,1840037326
Charlottesville,VA,Virginia,Charlottesville (city),38.0374,-78.4856,22901 22902 22903 22905 22906 22907 22908 22909 22910,1840001678
Rural Retreat,VA,Virginia,Wythe,36.901,-81.2764,24368,1840006503
Vansant,VA,Virginia,Buchanan,37.2359,-82.096,24656 24614 24631,1840006430
Smithfield,VA,Virginia,Isle of Wight,36.9753,-76.6162,23430 23431,1840006487
Lake Monticello,VA,Virginia,Fluvanna,37.921,-78.3295,22963,1840006342
Villa Heights,VA,Virginia,Henry,36.6981,-79.8994,24112,1840006559
West Springfield,VA,Virginia,Fairfax,38.7771,-77.2268,22152,1840006041
Waverly,VA,Virginia,Sussex,37.034,-77.0956,23890,1840006500
Abbott,VA,Virginia,Craig,37.4293,-80.1395,24127,1840037372
Burkeville,VA,Virginia,Nottoway,37.1879,-78.2012,23922,1840006461
Wallace,VA,Virginia,Washington,36.6529,-82.1279,24202,1840037455
Bull Run Mountain Estates,VA,Virginia,Prince William,38.9106,-77.6638,20169,1840026706
Falling Spring,VA,Virginia,Alleghany,37.8865,-79.9795,24445,1840037314
Chase Crossing,VA,Virginia,Accomack,37.7604,-75.6658,23357,1840024724
Tazewell,VA,Virginia,Tazewell,37.127,-81.513,24651 24630,1840006455
Benns Church,VA,Virginia,Isle of Wight,36.937,-76.5842,23314 23430,1840024806
Cullen,VA,Virginia,Charlotte,37.1176,-78.6492,23923,1840037262
Esmont,VA,Virginia,Albemarle,37.8284,-78.5959,22937,1840026774
Lovettsville,VA,Virginia,Loudoun,39.2739,-77.6392,20180,1840005873
Seven Mile Ford,VA,Virginia,Smyth,36.8128,-81.6294,24354,1840026900
Brooke,VA,Virginia,Stafford,38.3876,-77.3797,23920,1840023830
Achilles,VA,Virginia,Gloucester,37.2801,-76.4402,23072,1840037256
Lewisetta,VA,Virginia,Northumberland,37.9979,-76.4627,22511,1840037390
Boones Mill,VA,Virginia,Franklin,37.1156,-79.9514,24065,1840006478
Atkins,VA,Virginia,Smyth,36.8674,-81.3992,24311,1840006512
Norfolk,VA,Virginia,Norfolk (city),36.8945,-76.259,23509 23508 23504 23503 23502 23507 23505 23551 23518 23513 23517 23523 23510 23511 23501 23506 23514 23515 23519 23529 23541,1840003869
Belle Haven,VA,Virginia,Accomack,37.5556,-75.8259,23306 23350,1840006321
Ladysmith,VA,Virginia,Caroline,38.0176,-77.5153,22546,1840037268
Whaleyville,VA,Virginia,Suffolk (city),36.5882,-76.6847,23438,1840037457
Middletown,VA,Virginia,Frederick,39.0288,-78.2781,22645 22649,1840005776
Blue Ridge Shores,VA,Virginia,Louisa,38.1091,-78.0236,23093,1840026786
Montclair,VA,Virginia,Prince William,38.6111,-77.34,22193 22025,1840006095
Dumfries,VA,Virginia,Prince William,38.567,-77.3234,22026,1840006102
Stuart,VA,Virginia,Patrick,36.6411,-80.2689,24171,1840006549
Berryville,VA,Virginia,Clarke,39.1508,-77.9823,22611,1840005892
Templeton,VA,Virginia,Prince George,37.0811,-77.3563,23805,1840026870
Winterpock,VA,Virginia,Chesterfield,37.346,-77.7194,23838,1840037459
Stevens Creek,VA,Virginia,Grayson,36.7287,-80.999,24330,1840037371
Millboro,VA,Virginia,Bath,37.9751,-79.6028,24460,1840037397
Bracey,VA,Virginia,Mecklenburg,36.5762,-78.1107,23919,1840024859
Stanley,VA,Virginia,Page,38.5768,-78.5028,22851,1840006143
Buchanan,VA,Virginia,Botetourt,37.5212,-79.6894,24066,1840006379
Gretna,VA,Virginia,Pittsylvania,36.9492,-79.3646,24557,1840006493
Elkton,VA,Virginia,Rockingham,38.4107,-78.6159,22827,1840006133
Moneta,VA,Virginia,Bedford,37.1813,-79.6173,24121,1840037272
Glen Wilton,VA,Virginia,Botetourt,37.7529,-79.8189,24085,1840037345
Eggleston,VA,Virginia,Giles,37.2873,-80.6187,24086,1840037360
Yogaville,VA,Virginia,Buckingham,37.6654,-78.6946,23921,1840024766
Damascus,VA,Virginia,Washington,36.6326,-81.7889,24236,1840006530
Rushmere,VA,Virginia,Isle of Wight,37.0836,-76.6747,23430,1840006486
Petersburg,VA,Virginia,Petersburg (city),37.2042,-77.3914,23803 23805 23804,1840003861
Dumbarton,VA,Virginia,Henrico,37.613,-77.5065,23228 23230,1840006387
Fort Hunt,VA,Virginia,Fairfax,38.7361,-77.0589,22308 22306 22307,1840006010
Goldvein,VA,Virginia,Fauquier,38.449,-77.6553,22720,1840037292
Prices Fork,VA,Virginia,Montgomery,37.207,-80.4852,24060,1840024791
Rio,VA,Virginia,Albemarle,38.0762,-78.4611,22901,1840037470
Claremont,VA,Virginia,Surry,37.2273,-76.9665,23899,1840006471
Sussex,VA,Virginia,Sussex,36.9173,-77.2718,23882 23884 23890,1840026890
Hurt,VA,Virginia,Pittsylvania,37.0954,-79.3029,24563,1840006495
Fort Chiswell,VA,Virginia,Wythe,36.9444,-80.9577,24382 24360,1840037378
Hallwood,VA,Virginia,Accomack,37.8774,-75.5895,23359,1840006319
Pungoteague,VA,Virginia,Accomack,37.6291,-75.8172,23420 23422,1840024741
Hot Springs,VA,Virginia,Bath,38.0013,-79.8239,24445,1840026779
Manchester,VA,Virginia,Chesterfield,37.4902,-77.5396,23225 23235 23236,1840024785
Sandy Level,VA,Virginia,Henry,36.5645,-79.7276,24148 24054,1840006557
Chatham,VA,Virginia,Pittsylvania,36.8185,-79.3967,24531,1840006494
West Falls Church,VA,Virginia,Falls Church (city),38.8648,-77.1878,22042,1840006117
Weyers Cave,VA,Virginia,Augusta,38.2845,-78.9125,24486,1840006249
Walkerton,VA,Virginia,King and Queen,37.7263,-77.0227,23177,1840037405
Pearisburg,VA,Virginia,Giles,37.3289,-80.7274,24134,1840006433
Enon,VA,Virginia,Chesterfield,37.3275,-77.3196,23836,1840026844
Arvonia,VA,Virginia,Buckingham,37.6835,-78.3414,23123,1840037258
Isle of Wight,VA,Virginia,Isle of Wight,36.9076,-76.7077,23487,1840037432
Daleville,VA,Virginia,Botetourt,37.415,-79.9132,24083,1840006376
Matoaca,VA,Virginia,Chesterfield,37.2312,-77.4677,23803,1840006411
Fair Oaks,VA,Virginia,Fairfax,38.8653,-77.3586,22030 22033 22035,1840024568
Temperanceville,VA,Virginia,Accomack,37.8991,-75.5526,23442,1840024747
Gratton,VA,Virginia,Tazewell,37.1351,-81.4212,24651,1840026868
Franconia,VA,Virginia,Fairfax,38.7683,-77.1586,22310 22315,1840006027
Collinsville,VA,Virginia,Henry,36.7215,-79.9122,24078 24112,1840006553
Windsor,VA,Virginia,Isle of Wight,36.8095,-76.7405,23487,1840006488
Cats Bridge,VA,Virginia,Accomack,37.5491,-75.7797,23420,1840024723
Parksley,VA,Virginia,Accomack,37.7864,-75.6539,23421,1840006329
Bland,VA,Virginia,Bland,37.1,-81.1161,24315,1840026871
Huntington,VA,Virginia,Fairfax,38.7914,-77.0741,22303,1840006030
Brightwood,VA,Virginia,Madison,38.4132,-78.188,22715,1840026738
Sanford,VA,Virginia,Accomack,37.9299,-75.662,23426 23442,1840024743
Chincoteague,VA,Virginia,Accomack,37.9594,-75.3493,23336,1840006323
Sperryville,VA,Virginia,Rappahannock,38.6562,-78.2322,22740,1840026717
Waterford,VA,Virginia,Loudoun,39.1868,-77.61,20197,1840037282
Sugarland Run,VA,Virginia,Loudoun,39.0309,-77.3762,20164,1840024510
Tiptop,VA,Virginia,Tazewell,37.2109,-81.434,24630,1840037321
Deerfield,VA,Virginia,Augusta,38.1955,-79.4105,24432,1840024684
Meadowbrook,VA,Virginia,Chesterfield,37.4302,-77.474,23234 23237,1840024786
Selma,VA,Virginia,Alleghany,37.8033,-79.8499,24474,1840006364
Churchville,VA,Virginia,Augusta,38.2247,-79.1619,24421,1840024683
Springville,VA,Virginia,Tazewell,37.194,-81.3999,24630,1840026867
Shenandoah,VA,Virginia,Page,38.4873,-78.617,22849,1840006142
Saxe,VA,Virginia,Charlotte,36.9299,-78.6633,23967,1840037298
Parrott,VA,Virginia,Pulaski,37.2169,-80.6239,24132 24111,1840024804
Altavista,VA,Virginia,Campbell,37.1229,-79.2858,24517,1840006438
Potomac Mills,VA,Virginia,Prince William,38.6547,-77.3012,22192,1840026711
Great Falls,VA,Virginia,Fairfax,39.011,-77.3013,22066,1840006028
Naruna,VA,Virginia,Campbell,37.106,-79.0025,24554,1840037275
Clifton Forge,VA,Virginia,Alleghany,37.8232,-79.825,24422 24474,1840006365
Skyland Estates,VA,Virginia,Warren,38.9329,-78.085,22642,1840026697
Lynch Station,VA,Virginia,Campbell,37.1463,-79.3009,24571,1840037270
Claypool Hill,VA,Virginia,Tazewell,37.0629,-81.7504,24637 24609,1840006449
Fries,VA,Virginia,Grayson,36.7139,-80.975,24330 24333,1840006561
La Crosse,VA,Virginia,Mecklenburg,36.7014,-78.0939,23950,1840006540
Glade Spring,VA,Virginia,Washington,36.7899,-81.7725,24340,1840006528
Falls Church,VA,Virginia,Falls Church (city),38.8846,-77.1751,22046 22040,1840003835
Dunn Loring,VA,Virginia,Fairfax,38.8945,-77.2315,22027 22180 22182,1840006017
Pound,VA,Virginia,Wise,37.1261,-82.607,24279,1840006483
Rocky Mount,VA,Virginia,Franklin,37.0045,-79.8855,24151,1840006479
Concord,VA,Virginia,Campbell,37.3426,-78.9862,24538,1840026857
Grottoes,VA,Virginia,Rockingham,38.2693,-78.8251,24441,1840006134
Modest Town,VA,Virginia,Accomack,37.8169,-75.561,23308,1840024736
Fairlawn,VA,Virginia,Pulaski,37.1476,-80.5567,24141,1840001721
Galax,VA,Virginia,Galax (city),36.666,-80.9176,24333,1840003877
Farmville,VA,Virginia,Prince Edward,37.2968,-78.3993,23901 23909,1840006443
University Center,VA,Virginia,Loudoun,39.0601,-77.4445,20147,1840024511
Lively,VA,Virginia,Lancaster,37.7776,-76.5136,22503,1840037391
Nethers,VA,Virginia,Madison,38.5704,-78.2778,22740,1840037400
Hampden Sydney,VA,Virginia,Prince Edward,37.2416,-78.4693,23943 23901,1840037380
Saxis,VA,Virginia,Accomack,37.9257,-75.7225,23427,1840006330
Sutherland,VA,Virginia,Dinwiddie,37.196,-77.5597,23885,1840037452
Brodnax,VA,Virginia,Brunswick,36.7033,-78.0318,23920,1840006509
Stanardsville,VA,Virginia,Greene,38.2991,-78.4367,22973,1840006239
Purdy,VA,Virginia,Greensville,36.8224,-77.588,23867,1840037297
Highland Springs,VA,Virginia,Henrico,37.5517,-77.3285,23075 23223,1840006391
Massanetta Springs,VA,Virginia,Rockingham,38.3899,-78.834,22801 22846,1840026720
Martinsville,VA,Virginia,Martinsville (city),36.6827,-79.8636,24112 24113 24114 24115,1840001727
Chantilly,VA,Virginia,Fairfax,38.8868,-77.4453,20151 20153,1840006016
New Hope,VA,Virginia,Augusta,38.1954,-78.9044,22980 24401 24467 24431 24437 24469,1840024687
Dry Fork,VA,Virginia,Pittsylvania,36.7546,-79.3997,24540,1840037264
Toano,VA,Virginia,James City,37.3799,-76.8041,23168,1840037453
Saluda,VA,Virginia,Middlesex,37.6053,-76.5938,23149,1840026816
Danville,VA,Virginia,Danville (city),36.5831,-79.4088,24540 24541 24543,1840003878
Jewell Ridge,VA,Virginia,Tazewell,37.1848,-81.7884,24622,1840037385
Shipman,VA,Virginia,Nelson,37.7273,-78.8423,22971,1840024716
Quantico,VA,Virginia,Prince William,38.5225,-77.2901,22134,1840006109
Rice,VA,Virginia,Prince Edward,37.2752,-78.2914,23966,1840037310
Triangle,VA,Virginia,Prince William,38.5483,-77.3195,22172,1840006105
Ingram,VA,Virginia,Halifax,36.7443,-79.1584,24597,1840037293
Ivy,VA,Virginia,Albemarle,38.0611,-78.5987,22901 22903 22945,1840026776
Ettrick,VA,Virginia,Chesterfield,37.2435,-77.4287,23803 23806 23834,1840001699
Harborton,VA,Virginia,Accomack,37.6595,-75.8332,23389,1840024729
Dendron,VA,Virginia,Surry,37.0364,-76.924,23888 23846 23839,1840006470
Prince George,VA,Virginia,Prince George,37.2209,-77.2683,23875,1840026869
Flint Hill,VA,Virginia,Rappahannock,38.7666,-78.1028,22627 22640,1840026716
Quinby,VA,Virginia,Accomack,37.5533,-75.7368,23423,1840024742
Wise,VA,Virginia,Wise,36.9767,-82.5808,24293,1840006485
Sedley,VA,Virginia,Southampton,36.7753,-76.9862,23878,1840026906
Dale City,VA,Virginia,Prince William,38.6473,-77.3459,22193,1840006094
Mechanicsville,VA,Virginia,Hanover,37.6263,-77.3561,23116 23111,1840006340
Lafayette,VA,Virginia,Montgomery,37.233,-80.2051,24087,1840024790
Nathalie,VA,Virginia,Halifax,36.9381,-78.9422,24577,1840024813
Manassas,VA,Virginia,Manassas (city),38.748,-77.484,20110 20108 20113,1840003839
Mount Sidney,VA,Virginia,Augusta,38.2586,-78.9654,24467,1840024686
Lakeside,VA,Virginia,Henrico,37.6132,-77.4767,23228,1840006392
Colonial Beach,VA,Virginia,Westmoreland,38.2565,-76.9784,22443,1840006282
Central Point,VA,Virginia,Caroline,37.989,-77.1322,22514,1840037261
Lowes Island,VA,Virginia,Loudoun,39.0471,-77.3524,20165,1840024504
Suffolk,VA,Virginia,Suffolk (city),36.6953,-76.6398,23433 23432 23437 23436 23435 23434 23438 23439,1840003873
Burkes Garden,VA,Virginia,Tazewell,37.0982,-81.3409,24651,1840037423
Ivanhoe,VA,Virginia,Wythe,36.8428,-80.9683,24350,1840026891
Chase City,VA,Virginia,Mecklenburg,36.7998,-78.461,23924,1840006538
Saint Charles,VA,Virginia,Lee,36.8052,-83.0575,24282,1840006536
Clinchport,VA,Virginia,Scott,36.678,-82.745,24244,1840006545
Blairs,VA,Virginia,Pittsylvania,36.6958,-79.3774,24527 24540,1840026886
Merrifield,VA,Virginia,Fairfax,38.8731,-77.2426,22042 22031 22180 22081 22082 22116 22118 22119,1840006019
Madison Heights,VA,Virginia,Amherst,37.4487,-79.1058,24572,1840006372
Deep Creek,VA,Virginia,Accomack,37.763,-75.7549,23417,1840024725
Clarksville,VA,Virginia,Mecklenburg,36.6175,-78.564,23927,1840006539
Moseley,VA,Virginia,Powhatan,37.4751,-77.7789,23120,1840037273
Hoadly,VA,Virginia,Prince William,38.6804,-77.3592,22192,1840037412
Mitchelltown,VA,Virginia,Bath,38.0129,-79.8114,24445,1840037437
Lovingston,VA,Virginia,Nelson,37.7605,-78.8689,22949,1840024713
Kent,VA,Virginia,Wythe,36.9521,-81.0187,24382,1840037434
Independence,VA,Virginia,Grayson,36.6254,-81.1511,24348,1840006562
Harrisonburg,VA,Virginia,Harrisonburg (city),38.4362,-78.8735,22801 22807 22802,1840003844
Melfa,VA,Virginia,Accomack,37.6491,-75.7409,23410,1840006325
King George,VA,Virginia,King George,38.2807,-77.1896,22485,1840026758
Newtown,VA,Virginia,Rockingham,38.4154,-78.5981,22827,1840037361
Clintwood,VA,Virginia,Dickenson,37.1506,-82.4571,24228,1840006459
White Stone,VA,Virginia,Lancaster,37.644,-76.3897,22578,1840006371
Pembroke,VA,Virginia,Giles,37.3222,-80.6361,24136,1840006434
Spring Garden,VA,Virginia,Pittsylvania,36.7804,-79.3047,24531,1840037451
Rocky Gap,VA,Virginia,Bland,37.2423,-81.1073,24366,1840037319
Dublin,VA,Virginia,Pulaski,37.0989,-80.6831,24084,1840006468
Wakefield,VA,Virginia,Sussex,36.9686,-76.9875,23888,1840003867
Dryden,VA,Virginia,Lee,36.7764,-82.9433,24277 24243,1840006531
Elk Hill,VA,Virginia,Goochland,37.7176,-78.0875,23063,1840037343
Horntown,VA,Virginia,Accomack,37.9655,-75.4559,23395,1840024730
Low Moor,VA,Virginia,Alleghany,37.7944,-79.8706,24457,1840006363
Gladstone,VA,Virginia,Nelson,37.5468,-78.8495,24553,1840037365
Oak Grove,VA,Virginia,Loudoun,38.9845,-77.4175,20166,1840024506
Gloucester,VA,Virginia,Gloucester,37.4138,-76.5255,23061,1840037425
Dulles Town Center,VA,Virginia,Loudoun,39.0266,-77.4198,20166,1840024501
Bobtown,VA,Virginia,Accomack,37.6493,-75.7998,23410,1840024720
Belspring,VA,Virginia,Pulaski,37.1939,-80.6097,24058,1840024800
Fredericksburg,VA,Virginia,Fredericksburg (city),38.2992,-77.4871,22401 22402 22403 22404 22412,1840003845
Bealeton,VA,Virginia,Fauquier,38.5822,-77.7781,22712,1840024589
Warrenton,VA,Virginia,Fauquier,38.7177,-77.7973,20186 20188,1840006058
Savage Town,VA,Virginia,Accomack,37.55,-75.7983,23420,1840024744
Marion,VA,Virginia,Smyth,36.8389,-81.5135,24354,1840006515
Blue Ridge,VA,Virginia,Botetourt,37.3783,-79.8206,24064,1840006374
Ravensworth,VA,Virginia,Fairfax,38.8032,-77.2223,22151,1840024581
Broadway,VA,Virginia,Rockingham,38.6083,-78.8016,22815,1840006136
McCoy,VA,Virginia,Montgomery,37.2171,-80.5978,24060,1840037436
Bellwood,VA,Virginia,Chesterfield,37.406,-77.4363,23237,1840006407
Shawsville,VA,Virginia,Montgomery,37.1707,-80.2527,24162 24087,1840006445
Drewryville,VA,Virginia,Southampton,36.7157,-77.3064,23844,1840037342
Wyndham,VA,Virginia,Henrico,37.6925,-77.6124,23059,1840006396
Bridgewater,VA,Virginia,Rockingham,38.3863,-78.9674,22812,1840006135
Weber City,VA,Virginia,Scott,36.6237,-82.5628,24290,1840006547
Spring Creek,VA,Virginia,Rockingham,38.401,-79.0342,22812,1840037355
Pratts,VA,Virginia,Madison,38.3476,-78.27,22727,1840037440
Pastoria,VA,Virginia,Accomack,37.7446,-75.6352,23421 23301,1840024740
Union Level,VA,Virginia,Mecklenburg,36.7071,-78.2319,23970,1840024862
East Lexington,VA,Virginia,Rockbridge,37.8009,-79.416,24450,1840026792
Wattsville,VA,Virginia,Accomack,37.9304,-75.4953,23337 23415 23303,1840024748
Mount Airy,VA,Virginia,Pittsylvania,36.9429,-79.1922,24557,1840037274
Ferrum,VA,Virginia,Franklin,36.9314,-80.0148,24088,1840006473
Culpeper,VA,Virginia,Culpeper,38.4705,-78.0002,22701,1840006169
Cloverdale,VA,Virginia,Botetourt,37.3565,-79.9054,24077 24019,1840006375
Fincastle,VA,Virginia,Botetourt,37.4993,-79.8756,24090,1840006378
Triplet,VA,Virginia,Brunswick,36.6104,-77.7658,23868,1840037307
Vinton,VA,Virginia,Roanoke,37.2747,-79.8886,24179,1840003856
Owenton,VA,Virginia,King and Queen,37.8837,-77.1003,23148,1840037296
Meherrin,VA,Virginia,Lunenburg,37.1032,-78.3667,23954,1840037271
DeWitt,VA,Virginia,Dinwiddie,37.0388,-77.6433,23840,1840037263
Pohick,VA,Virginia,Fairfax,38.7101,-77.1966,22079,1840037369
Henry Fork,VA,Virginia,Franklin,36.9679,-79.871,24151,1840026877
Chester Gap,VA,Virginia,Rappahannock,38.8533,-78.1325,22640 22623,1840026718
Pamplin,VA,Virginia,Appomattox,37.2642,-78.682,23958,1840037417
Mount Solon,VA,Virginia,Augusta,38.3448,-79.085,22843,1840037413
Gate City,VA,Virginia,Scott,36.6402,-82.5783,24251,1840006544
Bloxom,VA,Virginia,Accomack,37.8291,-75.6216,23308,1840006322
McLean,VA,Virginia,Fairfax,38.9436,-77.1943,22046 22043 22101 22102 22067 22103 22106 22107 22108 22109,1840006018
Brambleton,VA,Virginia,Loudoun,38.9803,-77.5323,20148,1840024497
Sweet Briar Station,VA,Virginia,Amherst,37.5529,-79.0664,24521,1840037356
Blacksburg,VA,Virginia,Montgomery,37.23,-80.4277,24060 24061 24062 24063,1840006446
Milford,VA,Virginia,Caroline,38.0232,-77.3733,22514,1840037350
Pender,VA,Virginia,Fairfax,38.8707,-77.3689,22033,1840037368
Passapatanzy,VA,Virginia,King George,38.2941,-77.3267,22485,1840026759
Castlewood,VA,Virginia,Russell,36.8782,-82.2878,24224,1840006489
Portsmouth,VA,Virginia,Portsmouth (city),36.8468,-76.354,23703 23709 23708 23704 23707 23701 23702 23705,1840003872
Newport News,VA,Virginia,Newport News (city),37.1052,-76.5185,23601 23604 23605 23606 23607 23602 23603 23608 23609 23612 23628,1840003862
Westlake Corner,VA,Virginia,Franklin,37.1234,-79.6971,24184 24121 24101,1840006477
Shenandoah Retreat,VA,Virginia,Clarke,39.1373,-77.8637,20135,1840026669
Sugar Grove,VA,Virginia,Smyth,36.7689,-81.4075,24375,1840006513
Harriston,VA,Virginia,Augusta,38.212,-78.8283,24441,1840026752
Cluster Springs,VA,Virginia,Halifax,36.6128,-78.9221,24520 24592 24535,1840024811
Alberene,VA,Virginia,Albemarle,37.8865,-78.6164,22937,1840037323
Mavisdale,VA,Virginia,Buchanan,37.1984,-82.0079,24631,1840037435
Pauls Crossroads,VA,Virginia,Essex,37.8651,-76.9102,22560,1840037402
Irvington,VA,Virginia,Lancaster,37.6621,-76.4205,22480,1840006369
Madisonville,VA,Virginia,Charlotte,37.1882,-78.69,23923,1840037295
Nottoway Court House,VA,Virginia,Nottoway,37.1271,-78.0734,23930 23955,1840026872
Guinea,VA,Virginia,Caroline,38.1437,-77.4378,22580,1840023876
Timberlake,VA,Virginia,Campbell,37.3165,-79.248,24551 24550 24502,1840006437
Spotsylvania Courthouse,VA,Virginia,Spotsylvania,38.1982,-77.5885,22553 22551,1840006269
Forest,VA,Virginia,Bedford,37.3727,-79.2829,24551,1840006398
Nelsonia,VA,Virginia,Accomack,37.8224,-75.5895,23407 23414 23308,1840024737
Weedonville,VA,Virginia,King George,38.2985,-77.1586,22485,1840037406
Oak Hall,VA,Virginia,Accomack,37.9307,-75.5469,23416 23396,1840024739
Cape Charles,VA,Virginia,Northampton,37.257,-76.0093,23310,1840006416
Brosville,VA,Virginia,Pittsylvania,36.6196,-79.602,24541,1840037421
Basye,VA,Virginia,Shenandoah,38.8181,-78.7659,22842 22810,1840006000
Paytes,VA,Virginia,Spotsylvania,38.2274,-77.8328,22551,1840037276
New Kent,VA,Virginia,New Kent,37.5095,-76.9862,23124,1840026835
South Hill,VA,Virginia,Mecklenburg,36.7254,-78.1287,23970 23950,1840006541
Gladys,VA,Virginia,Campbell,37.1632,-79.0736,24554,1840037265
Volens,VA,Virginia,Halifax,36.9351,-79.0122,24577,1840037308
Hiwassee,VA,Virginia,Pulaski,36.9682,-80.7044,24347,1840024802
Hewlett,VA,Virginia,Hanover,37.9224,-77.5764,22546,1840037309
Dillwyn,VA,Virginia,Buckingham,37.5411,-78.4613,23936,1840006384
Haymarket,VA,Virginia,Prince William,38.8123,-77.6365,20155 20169 20168,1840006103
Dranesville,VA,Virginia,Fairfax,38.9955,-77.3693,20170,1840024565
Brentsville,VA,Virginia,Prince William,38.6882,-77.4961,20136,1840037373
Brookneal,VA,Virginia,Campbell,37.0532,-78.9486,24528,1840006439
Bluefield,VA,Virginia,Tazewell,37.2353,-81.2746,24605,1840006451
Hollymead,VA,Virginia,Albemarle,38.1266,-78.4386,22911,1840024700
Wellington,VA,Virginia,Fairfax,38.7457,-77.0553,22308,1840037407
Boyce,VA,Virginia,Clarke,39.0932,-78.0602,22620,1840005893
Plum Creek,VA,Virginia,Montgomery,37.1267,-80.5046,24073,1840037471
South Chesconessex,VA,Virginia,Accomack,37.7432,-75.7785,23417,1840037280
Mount Jackson,VA,Virginia,Shenandoah,38.7423,-78.6445,22847 22842,1840006002
Honaker,VA,Virginia,Russell,37.0156,-81.9686,24260,1840006490
Newsoms,VA,Virginia,Southampton,36.6262,-77.1248,23874,1840006522
Eastville,VA,Virginia,Northampton,37.351,-75.9404,23310 23347,1840006414
Fork Union,VA,Virginia,Fluvanna,37.7632,-78.2622,23055,1840037411
Marshall,VA,Virginia,Fauquier,38.8661,-77.8453,20198 20115 20116,1840024592
Buckner,VA,Virginia,Louisa,37.9621,-77.7728,23024,1840037334
Annandale,VA,Virginia,Fairfax,38.8324,-77.196,22042 22003,1840006011
Gasburg,VA,Virginia,Brunswick,36.5588,-77.8721,23887 23857,1840024816
Nickelsville,VA,Virginia,Scott,36.7517,-82.416,24271,1840006546
Mechanicsburg,VA,Virginia,Bland,37.1482,-80.9412,24315,1840037394
Salem,VA,Virginia,Salem (city),37.2864,-80.0554,24153 24155 24157,1840001719
Linville,VA,Virginia,Rockingham,38.5204,-78.8375,22834,1840037347
Laurel,VA,Virginia,Henrico,37.6375,-77.5062,23228,1840006393
Leesburg,VA,Virginia,Loudoun,39.1057,-77.5543,20175 20176 20177 20178,1840005872
East Highland Park,VA,Virginia,Henrico,37.5771,-77.3864,23222 23223,1840006388
Palmyra,VA,Virginia,Fluvanna,37.8652,-78.2627,22963,1840026797
Walters,VA,Virginia,Isle of Wight,36.7724,-76.8494,23315,1840037456
Farnham,VA,Virginia,Richmond,37.8854,-76.625,22460,1840037377
Cheriton,VA,Virginia,Northampton,37.2919,-75.9687,23310 23316,1840006417
Warfield,VA,Virginia,Brunswick,36.8976,-77.8194,23889,1840024817
Cumberland,VA,Virginia,Cumberland,37.4914,-78.2577,23040,1840026820
Rockdell,VA,Virginia,Russell,36.8907,-81.9537,24609,1840037318
Dooms,VA,Virginia,Augusta,38.1028,-78.8494,22980,1840006242
Hillsville,VA,Virginia,Carroll,36.7612,-80.7371,24343,1840006526
Pulaski,VA,Virginia,Pulaski,37.0531,-80.7624,24301,1840006469
Baskerville,VA,Virginia,Mecklenburg,36.6844,-78.2732,23915 23970,1840024858
Stony Creek,VA,Virginia,Sussex,36.948,-77.4001,23882,1840006499
New Church,VA,Virginia,Accomack,37.9826,-75.5292,23395 23415,1840024738
Rileyville,VA,Virginia,Page,38.7651,-78.3881,22650,1840037445
Greenbriar,VA,Virginia,Fairfax,38.8717,-77.397,22033,1840024572
Staunton,VA,Virginia,Staunton (city),38.1593,-79.0608,24401 24402,1840001670
Mendota,VA,Virginia,Washington,36.7109,-82.3015,24270,1840037395
New Market,VA,Virginia,Shenandoah,38.6461,-78.6708,22844,1840006003
Edinburg,VA,Virginia,Shenandoah,38.8236,-78.5633,22824,1840006001
Fairview,VA,Virginia,Mecklenburg,36.8292,-78.4653,23924,1840024860
Wylliesburg,VA,Virginia,Charlotte,36.8554,-78.5903,23976,1840037300
Dahlgren,VA,Virginia,King George,38.3444,-77.0624,22485,1840006266
Stuarts Draft,VA,Virginia,Augusta,38.0245,-79.0308,24477,1840006247
Stephens City,VA,Virginia,Frederick,39.0904,-78.2229,22655,1840005777
Wytheville,VA,Virginia,Wythe,36.953,-81.0881,24382,1840006504
Middlebrook,VA,Virginia,Augusta,38.0552,-79.2182,24459 24401,1840024685
Oakton,VA,Virginia,Fairfax,38.8887,-77.3017,22031 22124 22181 22185,1840006023
Covesville,VA,Virginia,Albemarle,37.8901,-78.7047,22931,1840037339
Lyndhurst,VA,Virginia,Augusta,38.0221,-78.9516,22952 22980 24477,1840006245
Axton,VA,Virginia,Henry,36.6596,-79.712,24054,1840037420
Charlotte Court House,VA,Virginia,Charlotte,37.0564,-78.6378,23923,1840006465
Bristow,VA,Virginia,Prince William,38.7229,-77.5361,20136,1840037410
Champlain,VA,Virginia,Essex,38.0135,-76.9927,22436,1840037337
Pantops,VA,Virginia,Albemarle,38.0308,-78.4444,22911,1840037472
Courtland,VA,Virginia,Southampton,36.7123,-77.062,23837,1840006520
Baileys Crossroads,VA,Virginia,Fairfax,38.8477,-77.1306,22041 22311,1840037327
Goode,VA,Virginia,Bedford,37.3588,-79.3917,24556,1840037366
Bristol,VA,Virginia,Bristol (city),36.618,-82.1607,24201 24202 24203 24205 24209,1840003879
Ashland,VA,Virginia,Hanover,37.7597,-77.4715,23005,1840006341
Monroe,VA,Virginia,Amherst,37.5021,-79.1278,24574,1840037439
Lincolnia,VA,Virginia,Fairfax,38.8158,-77.1543,22312,1840006034
Reston,VA,Virginia,Fairfax,38.9497,-77.346,20194 20191 20190 20101 20102 20103 20104 20195 20196 22096,1840006025
Five Mile Fork,VA,Virginia,Spotsylvania,38.2901,-77.5533,22407,1840037430
Hampton,VA,Virginia,Hampton (city),37.0551,-76.3629,23666 23664 23665 23651 23605 23661 23663 23669 23630 23667 23668 23670 23681,1840003866
Healing Springs,VA,Virginia,Bath,37.961,-79.8626,24445,1840037382
Nassawadox,VA,Virginia,Northampton,37.4763,-75.8591,23413,1840006418
Halifax,VA,Virginia,Halifax,36.7612,-78.9279,24558,1840006505
Woodbridge,VA,Virginia,Prince William,38.6569,-77.2403,22191,1840006106
Alton,VA,Virginia,Halifax,36.5732,-79.0028,24520,1840037325
Bergton,VA,Virginia,Rockingham,38.7657,-78.9489,22811,1840037331
Reedville,VA,Virginia,Northumberland,37.8421,-76.2758,22539,1840037444
Sandston,VA,Virginia,Henrico,37.512,-77.3149,23150 23250 23231,1840026826
Starkey,VA,Virginia,Roanoke,37.2007,-79.9986,24018,1840037370
Central Garage,VA,Virginia,King William,37.7458,-77.1315,23086 23009,1840024751
Spring Grove,VA,Virginia,Surry,37.1657,-76.9733,23881,1840037303
New Canton,VA,Virginia,Buckingham,37.7051,-78.2994,23123,1840037352
King William,VA,Virginia,King William,37.6882,-77.0212,23086,1840026809
Fort Blackmore,VA,Virginia,Scott,36.7745,-82.5868,24250,1840037362
Roanoke,VA,Virginia,Roanoke (city),37.2784,-79.9581,24014 24015 24016 24017 24011 24012 24013 24001 24002 24003 24004 24005 24006 24007 24008 24009 24010 24022 24023 24024 24025 24026 24027 24028 24029 24030 24031 24032 24033 24034 24035 24036 24037 24038 24040 24042 24043 24050,1840003858
Crewe,VA,Virginia,Nottoway,37.1812,-78.1307,23930,1840006462
Williamsburg,VA,Virginia,Williamsburg (city),37.2691,-76.7075,23187 23185 23186,1840001720
Hybla Valley,VA,Virginia,Fairfax,38.7485,-77.0822,22306,1840006031
Yorkshire,VA,Virginia,Prince William,38.7881,-77.4494,20111,1840006107
The Plains,VA,Virginia,Fauquier,38.8621,-77.7745,20198,1840006057
Buckhall,VA,Virginia,Prince William,38.725,-77.4472,20111 20110 20112,1840026707
Unionville,VA,Virginia,Orange,38.2599,-77.9683,22567,1840037454
Glen Allen,VA,Virginia,Henrico,37.666,-77.4838,23060 23059 23058,1840006390
Capron,VA,Virginia,Southampton,36.7093,-77.2013,23829,1840006519
Fishersville,VA,Virginia,Augusta,38.1004,-78.9686,22980 22939 24401,1840006240
Raven,VA,Virginia,Tazewell,37.0938,-81.8603,24612 24649 24639,1840006450
Sterling,VA,Virginia,Loudoun,39.0052,-77.4052,20164 20163 20167,1840024508
Simpsons,VA,Virginia,Floyd,37.0379,-80.2045,24072,1840037279
Centenary,VA,Virginia,Buckingham,37.7093,-78.5114,24590,1840037259
Narrows,VA,Virginia,Giles,37.3317,-80.8084,24124,1840006432
Ewing,VA,Virginia,Lee,36.6381,-83.4291,24248,1840001726
Woodburn,VA,Virginia,Fairfax,38.8503,-77.2322,22042 22031 22003,1840024584
Kinsale,VA,Virginia,Westmoreland,38.0296,-76.5808,22488,1840037387
Victoria,VA,Virginia,Lunenburg,36.9947,-78.2242,23974,1840003865
Callaghan,VA,Virginia,Alleghany,37.8112,-80.0871,24426,1840024750
Shenandoah Shores,VA,Virginia,Warren,38.9621,-78.1414,22630,1840026698
Warm Springs,VA,Virginia,Bath,38.0463,-79.7826,24484,1840026778
Front Royal,VA,Virginia,Warren,38.926,-78.1837,22630,1840006045
Opal,VA,Virginia,Fauquier,38.6201,-77.8049,22712 20186,1840024595
Shawnee Land,VA,Virginia,Frederick,39.1975,-78.3464,22602,1840037404
Big Island,VA,Virginia,Bedford,37.5351,-79.3615,24526,1840026836
Trammel,VA,Virginia,Dickenson,37.0145,-82.2938,24237,1840037419
Sebrell,VA,Virginia,Southampton,36.7838,-77.1275,23837,1840037447
Brandermill,VA,Virginia,Chesterfield,37.434,-77.6522,23112,1840024784
Chesterfield,VA,Virginia,Chesterfield,37.3771,-77.5058,23832,1840037424
Nelson,VA,Virginia,Mecklenburg,36.5624,-78.7047,24598,1840037415
Meadowview,VA,Virginia,Washington,36.7604,-81.8629,24361,1840037462
Brucetown,VA,Virginia,Frederick,39.2545,-78.0667,22624,1840037374
Brokenburg,VA,Virginia,Spotsylvania,38.1457,-77.7189,22551,1840037287
Sudley,VA,Virginia,Prince William,38.7878,-77.4961,20109,1840006104
Jeffersonton,VA,Virginia,Culpeper,38.6371,-77.915,22724,1840037294
Alexandria,VA,Virginia,Alexandria (city),38.8184,-77.0861,22302 22301 22304 22305 22311 22314 20598 22313 22320 22331 22332 22333 22334,1840003837
Elmo,VA,Virginia,Halifax,36.6765,-79.1222,24594,1840037291
Belmont,VA,Virginia,Loudoun,39.0651,-77.4963,20147,1840024496
Scottsville,VA,Virginia,Albemarle,37.8064,-78.492,24590,1840006281
Red Ash,VA,Virginia,Tazewell,37.1134,-81.871,24639,1840037443
Deltaville,VA,Virginia,Middlesex,37.5525,-76.3331,23043,1840026817
Kings Park,VA,Virginia,Fairfax,38.8026,-77.2396,22151,1840024574
Natural Bridge Station,VA,Virginia,Rockbridge,37.621,-79.5059,24579,1840037351
South Riding,VA,Virginia,Loudoun,38.9121,-77.5132,20152,1840024507
Bull Run,VA,Virginia,Prince William,38.7802,-77.5204,20109,1840006093
North Shore,VA,Virginia,Franklin,37.0778,-79.6517,24121,1840006474
